{
"type": "FeatureCollection",
"name": "sample_building_locations",
"crs": { "type": "name", "properties": { "name": "urn:ogc:def:crs:OGC:1.3:CRS84" } },
"features": [
{ "type": "Feature", "properties": { "area_id": 341, "area_name": "trade center first", "building_name": "latifa tower" }, "geometry": { "type": "Point", "coordinates": [ 55.30079, 25.25516 ] } },
{ "type": "Feature", "properties": { "area_id": 307, "area_name": "al safouh first", "building_name": "j8" }, "geometry": { "type": "Point", "coordinates": [ 55.24194, 25.10757 ] } },
{ "type": "Feature", "properties": { "area_id": 350, "area_name": "al thanyah fifth", "building_name": "lakeside" }, "geometry": { "type": "Point", "coordinates": [ 55.24194, 25.10757 ] } },
{ "type": "Feature", "properties": { "area_id": 350, "area_name": "al thanyah fifth", "building_name": "the wind tower ii" }, "geometry": { "type": "Point", "coordinates": [ 55.14243, 25.07223 ] } },
{ "type": "Feature", "properties": { "area_id": 350, "area_name": "al thanyah fifth", "building_name": "lake view" }, "geometry": { "type": "Point", "coordinates": [ 55.21229, 25.03674 ] } },
{ "type": "Feature", "properties": { "area_id": 350, "area_name": "al thanyah fifth", "building_name": "lake terrace" }, "geometry": { "type": "Point", "coordinates": [ 55.21229, 25.03674 ] } },
{ "type": "Feature", "properties": { "area_id": 350, "area_name": "al thanyah fifth", "building_name": "dubai arch tower" }, "geometry": { "type": "Point", "coordinates": [ 55.14243, 25.07223 ] } },
{ "type": "Feature", "properties": { "area_id": 350, "area_name": "al thanyah fifth", "building_name": "platinum tower" }, "geometry": { "type": "Point", "coordinates": [ 55.14243, 25.07223 ] } },
{ "type": "Feature", "properties": { "area_id": 330, "area_name": "marsa dubai", "building_name": "elite residence" }, "geometry": { "type": "Point", "coordinates": [ 55.21613, 25.0595 ] } },
{ "type": "Feature", "properties": { "area_id": 350, "area_name": "al thanyah fifth", "building_name": "dubai star" }, "geometry": { "type": "Point", "coordinates": [ 55.33478, 25.27966 ] } },
{ "type": "Feature", "properties": { "area_id": 330, "area_name": "marsa dubai", "building_name": "stella maris" }, "geometry": { "type": "Point", "coordinates": [ 55.2167, 25.03559 ] } },
{ "type": "Feature", "properties": { "area_id": 330, "area_name": "marsa dubai", "building_name": "torch tower" }, "geometry": { "type": "Point", "coordinates": [ 55.14243, 25.07223 ] } },
{ "type": "Feature", "properties": { "area_id": 330, "area_name": "marsa dubai", "building_name": "damac heights" }, "geometry": { "type": "Point", "coordinates": [ 55.14759, 25.07996 ] } },
{ "type": "Feature", "properties": { "area_id": 330, "area_name": "marsa dubai", "building_name": "ocean heights" }, "geometry": { "type": "Point", "coordinates": [ 55.31586, 25.14207 ] } },
{ "type": "Feature", "properties": { "area_id": 330, "area_name": "marsa dubai", "building_name": "cayan tower" }, "geometry": { "type": "Point", "coordinates": [ 55.14243, 25.07223 ] } },
{ "type": "Feature", "properties": { "area_id": 350, "area_name": "al thanyah fifth", "building_name": "madina tower" }, "geometry": { "type": "Point", "coordinates": [ 55.14243, 25.07223 ] } },
{ "type": "Feature", "properties": { "area_id": 330, "area_name": "marsa dubai", "building_name": "sulafa tower" }, "geometry": { "type": "Point", "coordinates": [ 55.14243, 25.07223 ] } },
{ "type": "Feature", "properties": { "area_id": 343, "area_name": "al warsan first", "building_name": "rufi gardens" }, "geometry": { "type": "Point", "coordinates": [ 55.16053, 25.02418 ] } },
{ "type": "Feature", "properties": { "area_id": 343, "area_name": "al warsan first", "building_name": "trafalgar central" }, "geometry": { "type": "Point", "coordinates": [ 55.40639, 25.16397 ] } },
{ "type": "Feature", "properties": { "area_id": 343, "area_name": "al warsan first", "building_name": "lady ratan manor" }, "geometry": { "type": "Point", "coordinates": [ 55.255158, 25.224637 ] } },
{ "type": "Feature", "properties": { "area_id": 330, "area_name": "marsa dubai", "building_name": "marina shores" }, "geometry": { "type": "Point", "coordinates": [ 55.14502, 25.08531 ] } },
{ "type": "Feature", "properties": { "area_id": 330, "area_name": "marsa dubai", "building_name": "pier 8" }, "geometry": { "type": "Point", "coordinates": [ 55.271545, 25.229032 ] } },
{ "type": "Feature", "properties": { "area_id": 330, "area_name": "marsa dubai", "building_name": "mag218" }, "geometry": { "type": "Point", "coordinates": [ 55.24194, 25.10757 ] } },
{ "type": "Feature", "properties": { "area_id": 330, "area_name": "marsa dubai", "building_name": "marina 101" }, "geometry": { "type": "Point", "coordinates": [ 55.14857, 25.08891 ] } },
{ "type": "Feature", "properties": { "area_id": 330, "area_name": "marsa dubai", "building_name": "tfg marina" }, "geometry": { "type": "Point", "coordinates": [ 55.14502, 25.08531 ] } },
{ "type": "Feature", "properties": { "area_id": 330, "area_name": "marsa dubai", "building_name": "studio one" }, "geometry": { "type": "Point", "coordinates": [ 55.01071, 24.96005 ] } },
{ "type": "Feature", "properties": { "area_id": 330, "area_name": "marsa dubai", "building_name": "escan marina tower" }, "geometry": { "type": "Point", "coordinates": [ 55.14502, 25.08531 ] } },
{ "type": "Feature", "properties": { "area_id": 330, "area_name": "marsa dubai", "building_name": "marina suites" }, "geometry": { "type": "Point", "coordinates": [ 55.14502, 25.08531 ] } },
{ "type": "Feature", "properties": { "area_id": 330, "area_name": "marsa dubai", "building_name": "marina living" }, "geometry": { "type": "Point", "coordinates": [ 55.14502, 25.08531 ] } },
{ "type": "Feature", "properties": { "area_id": 330, "area_name": "marsa dubai", "building_name": "marina wharf ii" }, "geometry": { "type": "Point", "coordinates": [ 55.13386, 25.07414 ] } },
{ "type": "Feature", "properties": { "area_id": 330, "area_name": "marsa dubai", "building_name": "tfg one hotel" }, "geometry": { "type": "Point", "coordinates": [ 55.26963, 25.20502 ] } },
{ "type": "Feature", "properties": { "area_id": 330, "area_name": "marsa dubai", "building_name": "marina arcade" }, "geometry": { "type": "Point", "coordinates": [ 55.14502, 25.08531 ] } },
{ "type": "Feature", "properties": { "area_id": 330, "area_name": "marsa dubai", "building_name": "marinascape" }, "geometry": { "type": "Point", "coordinates": [ 55.14701, 25.08351 ] } },
{ "type": "Feature", "properties": { "area_id": 410, "area_name": "palm jumeirah", "building_name": "oceana hotel and apartments" }, "geometry": { "type": "Point", "coordinates": [ 55.13097, 25.06855 ] } },
{ "type": "Feature", "properties": { "area_id": 350, "area_name": "al thanyah fifth", "building_name": "seven city jlt" }, "geometry": { "type": "Point", "coordinates": [ 55.14381, 25.07052 ] } },
{ "type": "Feature", "properties": { "area_id": 435, "area_name": "al hebiah fourth", "building_name": "elite 9 sports residence" }, "geometry": { "type": "Point", "coordinates": [ 55.21613, 25.0595 ] } },
{ "type": "Feature", "properties": { "area_id": 435, "area_name": "al hebiah fourth", "building_name": "grand horizon 1" }, "geometry": { "type": "Point", "coordinates": [ 55.2219, 25.03458 ] } },
{ "type": "Feature", "properties": { "area_id": 435, "area_name": "al hebiah fourth", "building_name": "red residence" }, "geometry": { "type": "Point", "coordinates": [ 55.21613, 25.0595 ] } },
{ "type": "Feature", "properties": { "area_id": 435, "area_name": "al hebiah fourth", "building_name": "hera tower" }, "geometry": { "type": "Point", "coordinates": [ 55.14243, 25.07223 ] } },
{ "type": "Feature", "properties": { "area_id": 435, "area_name": "al hebiah fourth", "building_name": "olympic park 1" }, "geometry": { "type": "Point", "coordinates": [ 55.42743, 25.24582 ] } },
{ "type": "Feature", "properties": { "area_id": 435, "area_name": "al hebiah fourth", "building_name": "olympic park 3" }, "geometry": { "type": "Point", "coordinates": [ 55.3607, 25.24266 ] } },
{ "type": "Feature", "properties": { "area_id": 435, "area_name": "al hebiah fourth", "building_name": "v2" }, "geometry": { "type": "Point", "coordinates": [ 55.24194, 25.10757 ] } },
{ "type": "Feature", "properties": { "area_id": 435, "area_name": "al hebiah fourth", "building_name": "bermuda views" }, "geometry": { "type": "Point", "coordinates": [ 55.31542, 25.20809 ] } },
{ "type": "Feature", "properties": { "area_id": 435, "area_name": "al hebiah fourth", "building_name": "oasis tower one" }, "geometry": { "type": "Point", "coordinates": [ 55.10787, 25.03988 ] } },
{ "type": "Feature", "properties": { "area_id": 435, "area_name": "al hebiah fourth", "building_name": "global golf residence 2" }, "geometry": { "type": "Point", "coordinates": [ 55.2182, 25.03991 ] } },
{ "type": "Feature", "properties": { "area_id": 435, "area_name": "al hebiah fourth", "building_name": "hamza tower" }, "geometry": { "type": "Point", "coordinates": [ 55.14243, 25.07223 ] } },
{ "type": "Feature", "properties": { "area_id": 435, "area_name": "al hebiah fourth", "building_name": "eden garden" }, "geometry": { "type": "Point", "coordinates": [ 55.23684, 25.03805 ] } },
{ "type": "Feature", "properties": { "area_id": 435, "area_name": "al hebiah fourth", "building_name": "the matrix" }, "geometry": { "type": "Point", "coordinates": [ 55.24194, 25.10757 ] } },
{ "type": "Feature", "properties": { "area_id": 435, "area_name": "al hebiah fourth", "building_name": "arena apartments" }, "geometry": { "type": "Point", "coordinates": [ 55.13, 25.04609 ] } },
{ "type": "Feature", "properties": { "area_id": 435, "area_name": "al hebiah fourth", "building_name": "olympic park 2" }, "geometry": { "type": "Point", "coordinates": [ 55.21278, 25.09429 ] } },
{ "type": "Feature", "properties": { "area_id": 435, "area_name": "al hebiah fourth", "building_name": "golf tower" }, "geometry": { "type": "Point", "coordinates": [ 55.20568, 25.03936 ] } },
{ "type": "Feature", "properties": { "area_id": 435, "area_name": "al hebiah fourth", "building_name": "cricket tower" }, "geometry": { "type": "Point", "coordinates": [ 55.14243, 25.07223 ] } },
{ "type": "Feature", "properties": { "area_id": 435, "area_name": "al hebiah fourth", "building_name": "tennis tower" }, "geometry": { "type": "Point", "coordinates": [ 55.1648, 24.99937 ] } },
{ "type": "Feature", "properties": { "area_id": 435, "area_name": "al hebiah fourth", "building_name": "the diamond" }, "geometry": { "type": "Point", "coordinates": [ 55.14724, 25.08156 ] } },
{ "type": "Feature", "properties": { "area_id": 435, "area_name": "al hebiah fourth", "building_name": "the medalist" }, "geometry": { "type": "Point", "coordinates": [ 55.24194, 25.10757 ] } },
{ "type": "Feature", "properties": { "area_id": 435, "area_name": "al hebiah fourth", "building_name": "olympic park 4" }, "geometry": { "type": "Point", "coordinates": [ 55.38301, 25.28895 ] } },
{ "type": "Feature", "properties": { "area_id": 435, "area_name": "al hebiah fourth", "building_name": "the spirit" }, "geometry": { "type": "Point", "coordinates": [ 55.24194, 25.10757 ] } },
{ "type": "Feature", "properties": { "area_id": 435, "area_name": "al hebiah fourth", "building_name": "champion tower 3" }, "geometry": { "type": "Point", "coordinates": [ 55.20426, 25.03863 ] } },
{ "type": "Feature", "properties": { "area_id": 390, "area_name": "burj khalifa", "building_name": "the address - the blvd" }, "geometry": { "type": "Point", "coordinates": [ 55.27129, 25.2017 ] } },
{ "type": "Feature", "properties": { "area_id": 390, "area_name": "burj khalifa", "building_name": "burj crown" }, "geometry": { "type": "Point", "coordinates": [ 55.27617, 25.18656 ] } },
{ "type": "Feature", "properties": { "area_id": 390, "area_name": "burj khalifa", "building_name": "opera grand" }, "geometry": { "type": "Point", "coordinates": [ 55.41168, 25.19308 ] } },
{ "type": "Feature", "properties": { "area_id": 390, "area_name": "burj khalifa", "building_name": "grande" }, "geometry": { "type": "Point", "coordinates": [ 55.41168, 25.19308 ] } },
{ "type": "Feature", "properties": { "area_id": 351, "area_name": "al thanyah third", "building_name": "golf heights" }, "geometry": { "type": "Point", "coordinates": [ 55.2153, 25.03538 ] } },
{ "type": "Feature", "properties": { "area_id": 390, "area_name": "burj khalifa", "building_name": "city center residences" }, "geometry": { "type": "Point", "coordinates": [ 55.13978, 25.11512 ] } },
{ "type": "Feature", "properties": { "area_id": 390, "area_name": "burj khalifa", "building_name": "the signature" }, "geometry": { "type": "Point", "coordinates": [ 55.26755, 25.18435 ] } },
{ "type": "Feature", "properties": { "area_id": 232, "area_name": "mirdif", "building_name": "mirdif tulip" }, "geometry": { "type": "Point", "coordinates": [ 55.42324, 25.22035 ] } },
{ "type": "Feature", "properties": { "area_id": 330, "area_name": "marsa dubai", "building_name": "sky view tower" }, "geometry": { "type": "Point", "coordinates": [ 55.27028, 25.20071 ] } },
{ "type": "Feature", "properties": { "area_id": 390, "area_name": "burj khalifa", "building_name": "rp heights" }, "geometry": { "type": "Point", "coordinates": [ 55.31586, 25.14207 ] } },
{ "type": "Feature", "properties": { "area_id": 330, "area_name": "marsa dubai", "building_name": "vida residences dubai marina" }, "geometry": { "type": "Point", "coordinates": [ 55.255158, 25.224781 ] } },
{ "type": "Feature", "properties": { "area_id": 330, "area_name": "marsa dubai", "building_name": "west avenue" }, "geometry": { "type": "Point", "coordinates": [ 55.26712, 25.04721 ] } },
{ "type": "Feature", "properties": { "area_id": 409, "area_name": "al barshaa south third", "building_name": "elano by oro24" }, "geometry": { "type": "Point", "coordinates": [ 55.253784, 25.217773 ] } },
{ "type": "Feature", "properties": { "area_id": 409, "area_name": "al barshaa south third", "building_name": "welcome residency" }, "geometry": { "type": "Point", "coordinates": [ 55.39775, 25.16577 ] } },
{ "type": "Feature", "properties": { "area_id": 409, "area_name": "al barshaa south third", "building_name": "samana hills" }, "geometry": { "type": "Point", "coordinates": [ 55.1587, 25.07684 ] } },
{ "type": "Feature", "properties": { "area_id": 409, "area_name": "al barshaa south third", "building_name": "samana park views" }, "geometry": { "type": "Point", "coordinates": [ 55.31542, 25.20809 ] } },
{ "type": "Feature", "properties": { "area_id": 409, "area_name": "al barshaa south third", "building_name": "la fontana di trevi" }, "geometry": { "type": "Point", "coordinates": [ 55.276428, 25.22526 ] } },
{ "type": "Feature", "properties": { "area_id": 409, "area_name": "al barshaa south third", "building_name": "gardenia livings" }, "geometry": { "type": "Point", "coordinates": [ 55.21233, 25.05436 ] } },
{ "type": "Feature", "properties": { "area_id": 409, "area_name": "al barshaa south third", "building_name": "2020 marquis" }, "geometry": { "type": "Point", "coordinates": [ 55.27618, 25.18498 ] } },
{ "type": "Feature", "properties": { "area_id": 409, "area_name": "al barshaa south third", "building_name": "aryene greens" }, "geometry": { "type": "Point", "coordinates": [ 55.17096, 25.09155 ] } },
{ "type": "Feature", "properties": { "area_id": 409, "area_name": "al barshaa south third", "building_name": "joya blanca residences" }, "geometry": { "type": "Point", "coordinates": [ 55.34533, 25.24775 ] } },
{ "type": "Feature", "properties": { "area_id": 409, "area_name": "al barshaa south third", "building_name": "vincitore palacio" }, "geometry": { "type": "Point", "coordinates": [ 55.31423, 25.0886 ] } },
{ "type": "Feature", "properties": { "area_id": 409, "area_name": "al barshaa south third", "building_name": "miraclz tower" }, "geometry": { "type": "Point", "coordinates": [ 55.14243, 25.07223 ] } },
{ "type": "Feature", "properties": { "area_id": 409, "area_name": "al barshaa south third", "building_name": "prime gardens" }, "geometry": { "type": "Point", "coordinates": [ 55.39775, 25.16577 ] } },
{ "type": "Feature", "properties": { "area_id": 409, "area_name": "al barshaa south third", "building_name": "samana mykonos signature" }, "geometry": { "type": "Point", "coordinates": [ 55.26755, 25.18435 ] } },
{ "type": "Feature", "properties": { "area_id": 409, "area_name": "al barshaa south third", "building_name": "beverly boulevard" }, "geometry": { "type": "Point", "coordinates": [ 55.27113, 25.19219 ] } },
{ "type": "Feature", "properties": { "area_id": 409, "area_name": "al barshaa south third", "building_name": "vincitore volare" }, "geometry": { "type": "Point", "coordinates": [ 55.31423, 25.0886 ] } },
{ "type": "Feature", "properties": { "area_id": 409, "area_name": "al barshaa south third", "building_name": "genesis" }, "geometry": { "type": "Point", "coordinates": [ 55.24194, 25.10757 ] } },
{ "type": "Feature", "properties": { "area_id": 409, "area_name": "al barshaa south third", "building_name": "elevate by prescott" }, "geometry": { "type": "Point", "coordinates": [ 55.276428, 25.225076 ] } },
{ "type": "Feature", "properties": { "area_id": 409, "area_name": "al barshaa south third", "building_name": "skyz by danube" }, "geometry": { "type": "Point", "coordinates": [ 55.0957, 25.00129 ] } },
{ "type": "Feature", "properties": { "area_id": 409, "area_name": "al barshaa south third", "building_name": "kyoto by oro24" }, "geometry": { "type": "Point", "coordinates": [ 55.255158, 25.21839 ] } },
{ "type": "Feature", "properties": { "area_id": 409, "area_name": "al barshaa south third", "building_name": "oxford gardens" }, "geometry": { "type": "Point", "coordinates": [ 55.20791, 25.06622 ] } },
{ "type": "Feature", "properties": { "area_id": 390, "area_name": "burj khalifa", "building_name": "the distinction" }, "geometry": { "type": "Point", "coordinates": [ 55.24194, 25.10757 ] } },
{ "type": "Feature", "properties": { "area_id": 441, "area_name": "al barsha south fourth", "building_name": "binghatti gardenia" }, "geometry": { "type": "Point", "coordinates": [ 55.21233, 25.05436 ] } },
{ "type": "Feature", "properties": { "area_id": 441, "area_name": "al barsha south fourth", "building_name": "aces chateau" }, "geometry": { "type": "Point", "coordinates": [ 55.20046, 25.0512 ] } },
{ "type": "Feature", "properties": { "area_id": 441, "area_name": "al barsha south fourth", "building_name": "neva residences" }, "geometry": { "type": "Point", "coordinates": [ 55.13978, 25.11512 ] } },
{ "type": "Feature", "properties": { "area_id": 441, "area_name": "al barsha south fourth", "building_name": "the vybe" }, "geometry": { "type": "Point", "coordinates": [ 55.24194, 25.10757 ] } },
{ "type": "Feature", "properties": { "area_id": 441, "area_name": "al barsha south fourth", "building_name": "binghatti jasmine" }, "geometry": { "type": "Point", "coordinates": [ 55.12982, 25.04189 ] } },
{ "type": "Feature", "properties": { "area_id": 441, "area_name": "al barsha south fourth", "building_name": "the square" }, "geometry": { "type": "Point", "coordinates": [ 55.35416, 25.28972 ] } },
{ "type": "Feature", "properties": { "area_id": 441, "area_name": "al barsha south fourth", "building_name": "pantheon elysee" }, "geometry": { "type": "Point", "coordinates": [ 55.24194, 25.10757 ] } },
{ "type": "Feature", "properties": { "area_id": 441, "area_name": "al barsha south fourth", "building_name": "botanica" }, "geometry": { "type": "Point", "coordinates": [ 55.24194, 25.10757 ] } },
{ "type": "Feature", "properties": { "area_id": 441, "area_name": "al barsha south fourth", "building_name": "binghatti amber" }, "geometry": { "type": "Point", "coordinates": [ 55.33839, 25.26307 ] } },
{ "type": "Feature", "properties": { "area_id": 441, "area_name": "al barsha south fourth", "building_name": "oxford terraces" }, "geometry": { "type": "Point", "coordinates": [ 55.20791, 25.06622 ] } },
{ "type": "Feature", "properties": { "area_id": 441, "area_name": "al barsha south fourth", "building_name": "cappadocia" }, "geometry": { "type": "Point", "coordinates": [ 55.24194, 25.10757 ] } },
{ "type": "Feature", "properties": { "area_id": 441, "area_name": "al barsha south fourth", "building_name": "oxford residence" }, "geometry": { "type": "Point", "coordinates": [ 55.21613, 25.0595 ] } },
{ "type": "Feature", "properties": { "area_id": 441, "area_name": "al barsha south fourth", "building_name": "nicholas residence" }, "geometry": { "type": "Point", "coordinates": [ 55.21613, 25.0595 ] } },
{ "type": "Feature", "properties": { "area_id": 441, "area_name": "al barsha south fourth", "building_name": "laya residences" }, "geometry": { "type": "Point", "coordinates": [ 55.13978, 25.11512 ] } },
{ "type": "Feature", "properties": { "area_id": 441, "area_name": "al barsha south fourth", "building_name": "uniestate prime tower" }, "geometry": { "type": "Point", "coordinates": [ 55.27015, 25.17272 ] } },
{ "type": "Feature", "properties": { "area_id": 441, "area_name": "al barsha south fourth", "building_name": "plazzo heights" }, "geometry": { "type": "Point", "coordinates": [ 55.20875, 25.06546 ] } },
{ "type": "Feature", "properties": { "area_id": 441, "area_name": "al barsha south fourth", "building_name": "park view tower" }, "geometry": { "type": "Point", "coordinates": [ 55.27028, 25.20071 ] } },
{ "type": "Feature", "properties": { "area_id": 441, "area_name": "al barsha south fourth", "building_name": "mayas geneva" }, "geometry": { "type": "Point", "coordinates": [ 55.20082, 25.05387 ] } },
{ "type": "Feature", "properties": { "area_id": 441, "area_name": "al barsha south fourth", "building_name": "the one" }, "geometry": { "type": "Point", "coordinates": [ 55.24194, 25.10757 ] } },
{ "type": "Feature", "properties": { "area_id": 441, "area_name": "al barsha south fourth", "building_name": "pearl house i by imtiaz" }, "geometry": { "type": "Point", "coordinates": [ 55.2782, 25.24907 ] } },
{ "type": "Feature", "properties": { "area_id": 441, "area_name": "al barsha south fourth", "building_name": "avalon tower" }, "geometry": { "type": "Point", "coordinates": [ 55.14243, 25.07223 ] } },
{ "type": "Feature", "properties": { "area_id": 441, "area_name": "al barsha south fourth", "building_name": "binghatti luna" }, "geometry": { "type": "Point", "coordinates": [ 55.24194, 25.10757 ] } },
{ "type": "Feature", "properties": { "area_id": 441, "area_name": "al barsha south fourth", "building_name": "harrington house" }, "geometry": { "type": "Point", "coordinates": [ 55.24504, 25.04535 ] } },
{ "type": "Feature", "properties": { "area_id": 441, "area_name": "al barsha south fourth", "building_name": "diamond views 1" }, "geometry": { "type": "Point", "coordinates": [ 55.14724, 25.08156 ] } },
{ "type": "Feature", "properties": { "area_id": 441, "area_name": "al barsha south fourth", "building_name": "oxford 212" }, "geometry": { "type": "Point", "coordinates": [ 55.20791, 25.06622 ] } },
{ "type": "Feature", "properties": { "area_id": 441, "area_name": "al barsha south fourth", "building_name": "hanover square" }, "geometry": { "type": "Point", "coordinates": [ 55.24194, 25.10757 ] } },
{ "type": "Feature", "properties": { "area_id": 441, "area_name": "al barsha south fourth", "building_name": "shamal waves" }, "geometry": { "type": "Point", "coordinates": [ 55.19855, 25.05086 ] } },
{ "type": "Feature", "properties": { "area_id": 441, "area_name": "al barsha south fourth", "building_name": "shamal residences 2" }, "geometry": { "type": "Point", "coordinates": [ 55.19855, 25.05086 ] } },
{ "type": "Feature", "properties": { "area_id": 441, "area_name": "al barsha south fourth", "building_name": "avanos" }, "geometry": { "type": "Point", "coordinates": [ 55.24194, 25.10757 ] } },
{ "type": "Feature", "properties": { "area_id": 441, "area_name": "al barsha south fourth", "building_name": "oxford residence 2" }, "geometry": { "type": "Point", "coordinates": [ 55.21613, 25.0595 ] } },
{ "type": "Feature", "properties": { "area_id": 441, "area_name": "al barsha south fourth", "building_name": "living garden ii" }, "geometry": { "type": "Point", "coordinates": [ 55.23684, 25.03805 ] } },
{ "type": "Feature", "properties": { "area_id": 441, "area_name": "al barsha south fourth", "building_name": "loci residences" }, "geometry": { "type": "Point", "coordinates": [ 55.13978, 25.11512 ] } },
{ "type": "Feature", "properties": { "area_id": 441, "area_name": "al barsha south fourth", "building_name": "binghatti mirage" }, "geometry": { "type": "Point", "coordinates": [ 55.15332, 25.09842 ] } },
{ "type": "Feature", "properties": { "area_id": 441, "area_name": "al barsha south fourth", "building_name": "hamilton house" }, "geometry": { "type": "Point", "coordinates": [ 55.24504, 25.04535 ] } },
{ "type": "Feature", "properties": { "area_id": 441, "area_name": "al barsha south fourth", "building_name": "belgravia" }, "geometry": { "type": "Point", "coordinates": [ 55.24194, 25.10757 ] } },
{ "type": "Feature", "properties": { "area_id": 441, "area_name": "al barsha south fourth", "building_name": "aria" }, "geometry": { "type": "Point", "coordinates": [ 55.24194, 25.10757 ] } },
{ "type": "Feature", "properties": { "area_id": 441, "area_name": "al barsha south fourth", "building_name": "hyati avenue" }, "geometry": { "type": "Point", "coordinates": [ 55.26712, 25.04721 ] } },
{ "type": "Feature", "properties": { "area_id": 441, "area_name": "al barsha south fourth", "building_name": "luma21" }, "geometry": { "type": "Point", "coordinates": [ 55.24194, 25.10757 ] } },
{ "type": "Feature", "properties": { "area_id": 441, "area_name": "al barsha south fourth", "building_name": "belgravia 2" }, "geometry": { "type": "Point", "coordinates": [ 55.24194, 25.10757 ] } },
{ "type": "Feature", "properties": { "area_id": 441, "area_name": "al barsha south fourth", "building_name": "binghatti house" }, "geometry": { "type": "Point", "coordinates": [ 55.24504, 25.04535 ] } },
{ "type": "Feature", "properties": { "area_id": 441, "area_name": "al barsha south fourth", "building_name": "rigel" }, "geometry": { "type": "Point", "coordinates": [ 55.24194, 25.10757 ] } },
{ "type": "Feature", "properties": { "area_id": 441, "area_name": "al barsha south fourth", "building_name": "binghatti corner" }, "geometry": { "type": "Point", "coordinates": [ 55.20418, 25.11 ] } },
{ "type": "Feature", "properties": { "area_id": 441, "area_name": "al barsha south fourth", "building_name": "regent court" }, "geometry": { "type": "Point", "coordinates": [ 55.18185, 25.04378 ] } },
{ "type": "Feature", "properties": { "area_id": 441, "area_name": "al barsha south fourth", "building_name": "five at jumeirah village circle dubai" }, "geometry": { "type": "Point", "coordinates": [ 55.2081, 25.05703 ] } },
{ "type": "Feature", "properties": { "area_id": 441, "area_name": "al barsha south fourth", "building_name": "aura by grovy" }, "geometry": { "type": "Point", "coordinates": [ 55.24093, 25.13285 ] } },
{ "type": "Feature", "properties": { "area_id": 441, "area_name": "al barsha south fourth", "building_name": "serenity lakes 5" }, "geometry": { "type": "Point", "coordinates": [ 55.1421, 25.07017 ] } },
{ "type": "Feature", "properties": { "area_id": 441, "area_name": "al barsha south fourth", "building_name": "binghatti orchid" }, "geometry": { "type": "Point", "coordinates": [ 55.16131, 25.00853 ] } },
{ "type": "Feature", "properties": { "area_id": 441, "area_name": "al barsha south fourth", "building_name": "la riviera azure" }, "geometry": { "type": "Point", "coordinates": [ 55.30522, 25.17341 ] } },
{ "type": "Feature", "properties": { "area_id": 441, "area_name": "al barsha south fourth", "building_name": "hadley heights" }, "geometry": { "type": "Point", "coordinates": [ 55.31586, 25.14207 ] } },
{ "type": "Feature", "properties": { "area_id": 441, "area_name": "al barsha south fourth", "building_name": "city apartments" }, "geometry": { "type": "Point", "coordinates": [ 55.13, 25.04609 ] } },
{ "type": "Feature", "properties": { "area_id": 441, "area_name": "al barsha south fourth", "building_name": "eaton place" }, "geometry": { "type": "Point", "coordinates": [ 55.33767, 25.24904 ] } },
{ "type": "Feature", "properties": { "area_id": 441, "area_name": "al barsha south fourth", "building_name": "binghatti emerald" }, "geometry": { "type": "Point", "coordinates": [ 55.24194, 25.10757 ] } },
{ "type": "Feature", "properties": { "area_id": 441, "area_name": "al barsha south fourth", "building_name": "chaimaa premiere" }, "geometry": { "type": "Point", "coordinates": [ 55.24194, 25.10757 ] } },
{ "type": "Feature", "properties": { "area_id": 441, "area_name": "al barsha south fourth", "building_name": "oxford terraces 2" }, "geometry": { "type": "Point", "coordinates": [ 55.20791, 25.06622 ] } },
{ "type": "Feature", "properties": { "area_id": 441, "area_name": "al barsha south fourth", "building_name": "ghalia" }, "geometry": { "type": "Point", "coordinates": [ 55.19925, 25.05313 ] } },
{ "type": "Feature", "properties": { "area_id": 441, "area_name": "al barsha south fourth", "building_name": "tower 108" }, "geometry": { "type": "Point", "coordinates": [ 55.14243, 25.07223 ] } },
{ "type": "Feature", "properties": { "area_id": 441, "area_name": "al barsha south fourth", "building_name": "samana waves" }, "geometry": { "type": "Point", "coordinates": [ 55.19855, 25.05086 ] } },
{ "type": "Feature", "properties": { "area_id": 441, "area_name": "al barsha south fourth", "building_name": "samana waves 2" }, "geometry": { "type": "Point", "coordinates": [ 55.19855, 25.05086 ] } },
{ "type": "Feature", "properties": { "area_id": 441, "area_name": "al barsha south fourth", "building_name": "the portman" }, "geometry": { "type": "Point", "coordinates": [ 55.24194, 25.10757 ] } },
{ "type": "Feature", "properties": { "area_id": 441, "area_name": "al barsha south fourth", "building_name": "dana tower" }, "geometry": { "type": "Point", "coordinates": [ 55.14243, 25.07223 ] } },
{ "type": "Feature", "properties": { "area_id": 441, "area_name": "al barsha south fourth", "building_name": "catch residences by igo" }, "geometry": { "type": "Point", "coordinates": [ 55.13978, 25.11512 ] } },
{ "type": "Feature", "properties": { "area_id": 441, "area_name": "al barsha south fourth", "building_name": "pulse smart residence" }, "geometry": { "type": "Point", "coordinates": [ 55.21613, 25.0595 ] } },
{ "type": "Feature", "properties": { "area_id": 441, "area_name": "al barsha south fourth", "building_name": "villa pera" }, "geometry": { "type": "Point", "coordinates": [ 55.28072, 25.24803 ] } },
{ "type": "Feature", "properties": { "area_id": 441, "area_name": "al barsha south fourth", "building_name": "diamond views 3" }, "geometry": { "type": "Point", "coordinates": [ 55.14724, 25.08156 ] } },
{ "type": "Feature", "properties": { "area_id": 441, "area_name": "al barsha south fourth", "building_name": "masaar residences" }, "geometry": { "type": "Point", "coordinates": [ 55.13978, 25.11512 ] } },
{ "type": "Feature", "properties": { "area_id": 441, "area_name": "al barsha south fourth", "building_name": "laya mansion" }, "geometry": { "type": "Point", "coordinates": [ 55.16144, 25.05137 ] } },
{ "type": "Feature", "properties": { "area_id": 441, "area_name": "al barsha south fourth", "building_name": "park corner" }, "geometry": { "type": "Point", "coordinates": [ 55.38301, 25.28895 ] } },
{ "type": "Feature", "properties": { "area_id": 441, "area_name": "al barsha south fourth", "building_name": "binghatti crescent" }, "geometry": { "type": "Point", "coordinates": [ 55.13105, 25.14047 ] } },
{ "type": "Feature", "properties": { "area_id": 441, "area_name": "al barsha south fourth", "building_name": "diamond views 4" }, "geometry": { "type": "Point", "coordinates": [ 55.14724, 25.08156 ] } },
{ "type": "Feature", "properties": { "area_id": 441, "area_name": "al barsha south fourth", "building_name": "diamond views 2" }, "geometry": { "type": "Point", "coordinates": [ 55.31542, 25.20809 ] } },
{ "type": "Feature", "properties": { "area_id": 441, "area_name": "al barsha south fourth", "building_name": "luxury family residence" }, "geometry": { "type": "Point", "coordinates": [ 55.21613, 25.0595 ] } },
{ "type": "Feature", "properties": { "area_id": 441, "area_name": "al barsha south fourth", "building_name": "reef residence" }, "geometry": { "type": "Point", "coordinates": [ 55.21613, 25.0595 ] } },
{ "type": "Feature", "properties": { "area_id": 441, "area_name": "al barsha south fourth", "building_name": "park vista" }, "geometry": { "type": "Point", "coordinates": [ 55.38301, 25.28895 ] } },
{ "type": "Feature", "properties": { "area_id": 441, "area_name": "al barsha south fourth", "building_name": "binghatti nova" }, "geometry": { "type": "Point", "coordinates": [ 55.28199, 25.0509 ] } },
{ "type": "Feature", "properties": { "area_id": 442, "area_name": "al barsha south fifth", "building_name": "the one at jumeirah village triangle" }, "geometry": { "type": "Point", "coordinates": [ 55.23159, 25.1904 ] } },
{ "type": "Feature", "properties": { "area_id": 442, "area_name": "al barsha south fifth", "building_name": "tranquil wellness tower" }, "geometry": { "type": "Point", "coordinates": [ 55.14243, 25.07223 ] } },
{ "type": "Feature", "properties": { "area_id": 442, "area_name": "al barsha south fifth", "building_name": "bali residences" }, "geometry": { "type": "Point", "coordinates": [ 55.13978, 25.11512 ] } },
{ "type": "Feature", "properties": { "area_id": 442, "area_name": "al barsha south fifth", "building_name": "edmonton elm" }, "geometry": { "type": "Point", "coordinates": [ 55.24194, 25.10757 ] } },
{ "type": "Feature", "properties": { "area_id": 442, "area_name": "al barsha south fifth", "building_name": "taraf 2 residence" }, "geometry": { "type": "Point", "coordinates": [ 55.21613, 25.0595 ] } },
{ "type": "Feature", "properties": { "area_id": 442, "area_name": "al barsha south fifth", "building_name": "green park" }, "geometry": { "type": "Point", "coordinates": [ 55.21891, 25.03608 ] } },
{ "type": "Feature", "properties": { "area_id": 442, "area_name": "al barsha south fifth", "building_name": "plazzo residence" }, "geometry": { "type": "Point", "coordinates": [ 55.21613, 25.0595 ] } },
{ "type": "Feature", "properties": { "area_id": 442, "area_name": "al barsha south fifth", "building_name": "the community" }, "geometry": { "type": "Point", "coordinates": [ 55.38663, 25.22399 ] } },
{ "type": "Feature", "properties": { "area_id": 442, "area_name": "al barsha south fifth", "building_name": "park one" }, "geometry": { "type": "Point", "coordinates": [ 55.38301, 25.28895 ] } },
{ "type": "Feature", "properties": { "area_id": 350, "area_name": "al thanyah fifth", "building_name": "verde by sobha" }, "geometry": { "type": "Point", "coordinates": [ 55.30181, 25.17991 ] } },
{ "type": "Feature", "properties": { "area_id": 350, "area_name": "al thanyah fifth", "building_name": "silver tower" }, "geometry": { "type": "Point", "coordinates": [ 55.14243, 25.07223 ] } },
{ "type": "Feature", "properties": { "area_id": 350, "area_name": "al thanyah fifth", "building_name": "tiffany towers" }, "geometry": { "type": "Point", "coordinates": [ 55.15041, 25.07666 ] } },
{ "type": "Feature", "properties": { "area_id": 350, "area_name": "al thanyah fifth", "building_name": "palladium" }, "geometry": { "type": "Point", "coordinates": [ 55.24194, 25.10757 ] } },
{ "type": "Feature", "properties": { "area_id": 350, "area_name": "al thanyah fifth", "building_name": "mbl residence" }, "geometry": { "type": "Point", "coordinates": [ 55.21613, 25.0595 ] } },
{ "type": "Feature", "properties": { "area_id": 350, "area_name": "al thanyah fifth", "building_name": "mbl royal" }, "geometry": { "type": "Point", "coordinates": [ 55.38321, 25.08723 ] } },
{ "type": "Feature", "properties": { "area_id": 334, "area_name": "al jadaf", "building_name": "iris amber" }, "geometry": { "type": "Point", "coordinates": [ 55.16397, 24.99991 ] } },
{ "type": "Feature", "properties": { "area_id": 330, "area_name": "marsa dubai", "building_name": "orra marina" }, "geometry": { "type": "Point", "coordinates": [ 55.14502, 25.08531 ] } },
{ "type": "Feature", "properties": { "area_id": 443, "area_name": "al thanyah first", "building_name": "smart heights" }, "geometry": { "type": "Point", "coordinates": [ 55.17632, 25.09625 ] } },
{ "type": "Feature", "properties": { "area_id": 443, "area_name": "al thanyah first", "building_name": "fahad 2" }, "geometry": { "type": "Point", "coordinates": [ 55.260803, 25.237288 ] } },
{ "type": "Feature", "properties": { "area_id": 443, "area_name": "al thanyah first", "building_name": "metro central" }, "geometry": { "type": "Point", "coordinates": [ 55.27264, 25.19958 ] } },
{ "type": "Feature", "properties": { "area_id": 443, "area_name": "al thanyah first", "building_name": "grand central" }, "geometry": { "type": "Point", "coordinates": [ 55.2168, 25.13938 ] } },
{ "type": "Feature", "properties": { "area_id": 444, "area_name": "al hebiah first", "building_name": "apex atrium" }, "geometry": { "type": "Point", "coordinates": [ 55.23543, 25.04635 ] } },
{ "type": "Feature", "properties": { "area_id": 350, "area_name": "al thanyah fifth", "building_name": "me do re" }, "geometry": { "type": "Point", "coordinates": [ 55.24194, 25.10757 ] } },
{ "type": "Feature", "properties": { "area_id": 444, "area_name": "al hebiah first", "building_name": "detroit house" }, "geometry": { "type": "Point", "coordinates": [ 55.48486, 25.33263 ] } },
{ "type": "Feature", "properties": { "area_id": 444, "area_name": "al hebiah first", "building_name": "daytona house" }, "geometry": { "type": "Point", "coordinates": [ 55.24504, 25.04535 ] } },
{ "type": "Feature", "properties": { "area_id": 330, "area_name": "marsa dubai", "building_name": "liv lux" }, "geometry": { "type": "Point", "coordinates": [ 55.24194, 25.10757 ] } },
{ "type": "Feature", "properties": { "area_id": 334, "area_name": "al jadaf", "building_name": "d1" }, "geometry": { "type": "Point", "coordinates": [ 55.24194, 25.10757 ] } },
{ "type": "Feature", "properties": { "area_id": 334, "area_name": "al jadaf", "building_name": "palazzo versace" }, "geometry": { "type": "Point", "coordinates": [ 55.24194, 25.10757 ] } },
{ "type": "Feature", "properties": { "area_id": 435, "area_name": "al hebiah fourth", "building_name": "profile residence" }, "geometry": { "type": "Point", "coordinates": [ 55.21613, 25.0595 ] } },
{ "type": "Feature", "properties": { "area_id": 390, "area_name": "burj khalifa", "building_name": "exquisite living residences" }, "geometry": { "type": "Point", "coordinates": [ 55.13978, 25.11512 ] } },
{ "type": "Feature", "properties": { "area_id": 350, "area_name": "al thanyah fifth", "building_name": "laguna tower" }, "geometry": { "type": "Point", "coordinates": [ 55.14243, 25.07223 ] } },
{ "type": "Feature", "properties": { "area_id": 435, "area_name": "al hebiah fourth", "building_name": "vista by prestige one" }, "geometry": { "type": "Point", "coordinates": [ 55.21168, 25.04802 ] } },
{ "type": "Feature", "properties": { "area_id": 334, "area_name": "al jadaf", "building_name": "riah towers" }, "geometry": { "type": "Point", "coordinates": [ 55.1421, 25.07017 ] } },
{ "type": "Feature", "properties": { "area_id": 409, "area_name": "al barshaa south third", "building_name": "orion building" }, "geometry": { "type": "Point", "coordinates": [ 55.28231, 25.02733 ] } },
{ "type": "Feature", "properties": { "area_id": 441, "area_name": "al barsha south fourth", "building_name": "belgravia heights ii" }, "geometry": { "type": "Point", "coordinates": [ 55.20988, 25.0361 ] } },
{ "type": "Feature", "properties": { "area_id": 441, "area_name": "al barsha south fourth", "building_name": "belgravia heights i" }, "geometry": { "type": "Point", "coordinates": [ 55.20988, 25.0361 ] } },
{ "type": "Feature", "properties": { "area_id": 442, "area_name": "al barsha south fifth", "building_name": "al jawhara tower" }, "geometry": { "type": "Point", "coordinates": [ 55.14243, 25.07223 ] } },
{ "type": "Feature", "properties": { "area_id": 444, "area_name": "al hebiah first", "building_name": "the community motor city" }, "geometry": { "type": "Point", "coordinates": [ 55.23872, 25.04492 ] } },
{ "type": "Feature", "properties": { "area_id": 410, "area_name": "palm jumeirah", "building_name": "the 8" }, "geometry": { "type": "Point", "coordinates": [ 55.24194, 25.10757 ] } },
{ "type": "Feature", "properties": { "area_id": 458, "area_name": "dubai investment park first", "building_name": "schon business park" }, "geometry": { "type": "Point", "coordinates": [ 55.17583, 24.9845 ] } },
{ "type": "Feature", "properties": { "area_id": 334, "area_name": "al jadaf", "building_name": "binghatti avenue" }, "geometry": { "type": "Point", "coordinates": [ 55.26712, 25.04721 ] } },
{ "type": "Feature", "properties": { "area_id": 483, "area_name": "warsan fourth", "building_name": "ritz residence" }, "geometry": { "type": "Point", "coordinates": [ 55.21613, 25.0595 ] } },
{ "type": "Feature", "properties": { "area_id": 410, "area_name": "palm jumeirah", "building_name": "palm beach towers -1" }, "geometry": { "type": "Point", "coordinates": [ 55.13413, 25.12901 ] } },
{ "type": "Feature", "properties": { "area_id": 445, "area_name": "jabal ali first", "building_name": "victoria residency" }, "geometry": { "type": "Point", "coordinates": [ 55.16855, 25.07749 ] } },
{ "type": "Feature", "properties": { "area_id": 442, "area_name": "al barsha south fifth", "building_name": "miami by sd" }, "geometry": { "type": "Point", "coordinates": [ 55.272053, 25.230842 ] } },
{ "type": "Feature", "properties": { "area_id": 330, "area_name": "marsa dubai", "building_name": "five luxe" }, "geometry": { "type": "Point", "coordinates": [ 55.20595, 25.05329 ] } },
{ "type": "Feature", "properties": { "area_id": 444, "area_name": "al hebiah first", "building_name": "oia residence" }, "geometry": { "type": "Point", "coordinates": [ 55.21613, 25.0595 ] } },
{ "type": "Feature", "properties": { "area_id": 485, "area_name": "me'aisem first", "building_name": "oakwood residency" }, "geometry": { "type": "Point", "coordinates": [ 55.39775, 25.16577 ] } },
{ "type": "Feature", "properties": { "area_id": 478, "area_name": "jabal ali industrial second", "building_name": "alexis tower" }, "geometry": { "type": "Point", "coordinates": [ 55.14243, 25.07223 ] } },
{ "type": "Feature", "properties": { "area_id": 390, "area_name": "burj khalifa", "building_name": "burj royale" }, "geometry": { "type": "Point", "coordinates": [ 55.27617, 25.18656 ] } },
{ "type": "Feature", "properties": { "area_id": 390, "area_name": "burj khalifa", "building_name": "elegance tower" }, "geometry": { "type": "Point", "coordinates": [ 55.14243, 25.07223 ] } },
{ "type": "Feature", "properties": { "area_id": 390, "area_name": "burj khalifa", "building_name": "mada residences tower" }, "geometry": { "type": "Point", "coordinates": [ 55.27129, 25.2017 ] } },
{ "type": "Feature", "properties": { "area_id": 390, "area_name": "burj khalifa", "building_name": "elite downtown residence" }, "geometry": { "type": "Point", "coordinates": [ 55.27798, 25.18606 ] } },
{ "type": "Feature", "properties": { "area_id": 390, "area_name": "burj khalifa", "building_name": "bahwan tower" }, "geometry": { "type": "Point", "coordinates": [ 55.14243, 25.07223 ] } },
{ "type": "Feature", "properties": { "area_id": 390, "area_name": "burj khalifa", "building_name": "mon reve" }, "geometry": { "type": "Point", "coordinates": [ 55.258977, 25.220511 ] } },
{ "type": "Feature", "properties": { "area_id": 330, "area_name": "marsa dubai", "building_name": "the one jbr" }, "geometry": { "type": "Point", "coordinates": [ 55.13129, 25.07495 ] } },
{ "type": "Feature", "properties": { "area_id": 350, "area_name": "al thanyah fifth", "building_name": "the residences" }, "geometry": { "type": "Point", "coordinates": [ 55.27433, 25.19134 ] } },
{ "type": "Feature", "properties": { "area_id": 485, "area_name": "me'aisem first", "building_name": "myka residence" }, "geometry": { "type": "Point", "coordinates": [ 55.21613, 25.0595 ] } },
{ "type": "Feature", "properties": { "area_id": 445, "area_name": "jabal ali first", "building_name": "azizi berton" }, "geometry": { "type": "Point", "coordinates": [ 55.30695, 25.17141 ] } },
{ "type": "Feature", "properties": { "area_id": 483, "area_name": "warsan fourth", "building_name": "equiti apartments" }, "geometry": { "type": "Point", "coordinates": [ 55.20743, 25.12643 ] } },
{ "type": "Feature", "properties": { "area_id": 526, "area_name": "business bay", "building_name": "sky bay hotel" }, "geometry": { "type": "Point", "coordinates": [ 55.26963, 25.20502 ] } },
{ "type": "Feature", "properties": { "area_id": 333, "area_name": "madinat dubai almelaheyah", "building_name": "harbour lights" }, "geometry": { "type": "Point", "coordinates": [ 55.34736, 25.2071 ] } },
{ "type": "Feature", "properties": { "area_id": 330, "area_name": "marsa dubai", "building_name": "the residences at marina gate 1" }, "geometry": { "type": "Point", "coordinates": [ 55.14502, 25.08531 ] } },
{ "type": "Feature", "properties": { "area_id": 445, "area_name": "jabal ali first", "building_name": "westwood by imtiaz" }, "geometry": { "type": "Point", "coordinates": [ 55.271545, 25.228808 ] } },
{ "type": "Feature", "properties": { "area_id": 526, "area_name": "business bay", "building_name": "majestine" }, "geometry": { "type": "Point", "coordinates": [ 55.24194, 25.10757 ] } },
{ "type": "Feature", "properties": { "area_id": 526, "area_name": "business bay", "building_name": "millennium binghatti residences business bay" }, "geometry": { "type": "Point", "coordinates": [ 55.26704, 25.18475 ] } },
{ "type": "Feature", "properties": { "area_id": 526, "area_name": "business bay", "building_name": "the prism" }, "geometry": { "type": "Point", "coordinates": [ 55.26111, 25.18748 ] } },
{ "type": "Feature", "properties": { "area_id": 526, "area_name": "business bay", "building_name": "al manara" }, "geometry": { "type": "Point", "coordinates": [ 55.21357, 25.14371 ] } },
{ "type": "Feature", "properties": { "area_id": 526, "area_name": "business bay", "building_name": "sobha sapphire" }, "geometry": { "type": "Point", "coordinates": [ 55.30181, 25.17991 ] } },
{ "type": "Feature", "properties": { "area_id": 410, "area_name": "palm jumeirah", "building_name": "ellington beach house" }, "geometry": { "type": "Point", "coordinates": [ 55.24504, 25.04535 ] } },
{ "type": "Feature", "properties": { "area_id": 410, "area_name": "palm jumeirah", "building_name": "royal bay" }, "geometry": { "type": "Point", "coordinates": [ 55.38321, 25.08723 ] } },
{ "type": "Feature", "properties": { "area_id": 526, "area_name": "business bay", "building_name": "crystal tower" }, "geometry": { "type": "Point", "coordinates": [ 55.26963, 25.20502 ] } },
{ "type": "Feature", "properties": { "area_id": 335, "area_name": "nad al shiba first", "building_name": "prime views" }, "geometry": { "type": "Point", "coordinates": [ 55.31542, 25.20809 ] } },
{ "type": "Feature", "properties": { "area_id": 335, "area_name": "nad al shiba first", "building_name": "the galleries" }, "geometry": { "type": "Point", "coordinates": [ 55.0925, 24.98028 ] } },
{ "type": "Feature", "properties": { "area_id": 335, "area_name": "nad al shiba first", "building_name": "azizi park avenue" }, "geometry": { "type": "Point", "coordinates": [ 55.30788, 25.16621 ] } },
{ "type": "Feature", "properties": { "area_id": 330, "area_name": "marsa dubai", "building_name": "ciel" }, "geometry": { "type": "Point", "coordinates": [ 55.24194, 25.10757 ] } },
{ "type": "Feature", "properties": { "area_id": 526, "area_name": "business bay", "building_name": "oxford tower" }, "geometry": { "type": "Point", "coordinates": [ 55.14243, 25.07223 ] } },
{ "type": "Feature", "properties": { "area_id": 526, "area_name": "business bay", "building_name": "burlington tower" }, "geometry": { "type": "Point", "coordinates": [ 55.26537, 25.18507 ] } },
{ "type": "Feature", "properties": { "area_id": 526, "area_name": "business bay", "building_name": "clover bay" }, "geometry": { "type": "Point", "coordinates": [ 55.27006, 25.18878 ] } },
{ "type": "Feature", "properties": { "area_id": 445, "area_name": "jabal ali first", "building_name": "pearlz by danube" }, "geometry": { "type": "Point", "coordinates": [ 55.0957, 25.00129 ] } },
{ "type": "Feature", "properties": { "area_id": 526, "area_name": "business bay", "building_name": "lake central" }, "geometry": { "type": "Point", "coordinates": [ 55.273, 25.18097 ] } },
{ "type": "Feature", "properties": { "area_id": 526, "area_name": "business bay", "building_name": "avanti tower" }, "geometry": { "type": "Point", "coordinates": [ 55.14243, 25.07223 ] } },
{ "type": "Feature", "properties": { "area_id": 526, "area_name": "business bay", "building_name": "windsor manor" }, "geometry": { "type": "Point", "coordinates": [ 55.24194, 25.10757 ] } },
{ "type": "Feature", "properties": { "area_id": 526, "area_name": "business bay", "building_name": "ontario tower" }, "geometry": { "type": "Point", "coordinates": [ 55.14243, 25.07223 ] } },
{ "type": "Feature", "properties": { "area_id": 526, "area_name": "business bay", "building_name": "water's edge" }, "geometry": { "type": "Point", "coordinates": [ 55.23743, 25.19469 ] } },
{ "type": "Feature", "properties": { "area_id": 526, "area_name": "business bay", "building_name": "park central" }, "geometry": { "type": "Point", "coordinates": [ 55.38301, 25.28895 ] } },
{ "type": "Feature", "properties": { "area_id": 526, "area_name": "business bay", "building_name": "capital bay b" }, "geometry": { "type": "Point", "coordinates": [ 55.27673, 25.24382 ] } },
{ "type": "Feature", "properties": { "area_id": 526, "area_name": "business bay", "building_name": "the cosmopolitan" }, "geometry": { "type": "Point", "coordinates": [ 55.24194, 25.10757 ] } },
{ "type": "Feature", "properties": { "area_id": 526, "area_name": "business bay", "building_name": "opal tower" }, "geometry": { "type": "Point", "coordinates": [ 55.27593, 25.1859 ] } },
{ "type": "Feature", "properties": { "area_id": 526, "area_name": "business bay", "building_name": "the pad" }, "geometry": { "type": "Point", "coordinates": [ 55.24194, 25.10757 ] } },
{ "type": "Feature", "properties": { "area_id": 526, "area_name": "business bay", "building_name": "mayfair tower" }, "geometry": { "type": "Point", "coordinates": [ 55.14243, 25.07223 ] } },
{ "type": "Feature", "properties": { "area_id": 526, "area_name": "business bay", "building_name": "clayton residency" }, "geometry": { "type": "Point", "coordinates": [ 55.39775, 25.16577 ] } },
{ "type": "Feature", "properties": { "area_id": 478, "area_name": "jabal ali industrial second", "building_name": "azizi aura residences" }, "geometry": { "type": "Point", "coordinates": [ 55.13978, 25.11512 ] } },
{ "type": "Feature", "properties": { "area_id": 526, "area_name": "business bay", "building_name": "the one hotel" }, "geometry": { "type": "Point", "coordinates": [ 55.26963, 25.20502 ] } },
{ "type": "Feature", "properties": { "area_id": 526, "area_name": "business bay", "building_name": "regal tower" }, "geometry": { "type": "Point", "coordinates": [ 55.26056, 25.18721 ] } },
{ "type": "Feature", "properties": { "area_id": 526, "area_name": "business bay", "building_name": "bayz tower" }, "geometry": { "type": "Point", "coordinates": [ 55.14243, 25.07223 ] } },
{ "type": "Feature", "properties": { "area_id": 483, "area_name": "warsan fourth", "building_name": "al helal al zahaby 3" }, "geometry": { "type": "Point", "coordinates": [ 55.278076, 25.248734 ] } },
{ "type": "Feature", "properties": { "area_id": 526, "area_name": "business bay", "building_name": "elite business bay residence" }, "geometry": { "type": "Point", "coordinates": [ 55.26704, 25.18475 ] } },
{ "type": "Feature", "properties": { "area_id": 343, "area_name": "al warsan first", "building_name": "tabeer 1" }, "geometry": { "type": "Point", "coordinates": [ 55.276428, 25.225125 ] } },
{ "type": "Feature", "properties": { "area_id": 526, "area_name": "business bay", "building_name": "ag tower" }, "geometry": { "type": "Point", "coordinates": [ 55.14243, 25.07223 ] } },
{ "type": "Feature", "properties": { "area_id": 526, "area_name": "business bay", "building_name": "mag 318" }, "geometry": { "type": "Point", "coordinates": [ 55.24194, 25.10757 ] } },
{ "type": "Feature", "properties": { "area_id": 445, "area_name": "jabal ali first", "building_name": "candace aster hotel apartments" }, "geometry": { "type": "Point", "coordinates": [ 55.13097, 25.06855 ] } },
{ "type": "Feature", "properties": { "area_id": 445, "area_name": "jabal ali first", "building_name": "candace acacia hotel apartments" }, "geometry": { "type": "Point", "coordinates": [ 55.13097, 25.06855 ] } },
{ "type": "Feature", "properties": { "area_id": 483, "area_name": "warsan fourth", "building_name": "park ville 07" }, "geometry": { "type": "Point", "coordinates": [ 55.40163, 25.14995 ] } },
{ "type": "Feature", "properties": { "area_id": 526, "area_name": "business bay", "building_name": "nobles" }, "geometry": { "type": "Point", "coordinates": [ 55.24194, 25.10757 ] } },
{ "type": "Feature", "properties": { "area_id": 441, "area_name": "al barsha south fourth", "building_name": "elegance by chaimaa holding" }, "geometry": { "type": "Point", "coordinates": [ 55.255158, 25.218744 ] } },
{ "type": "Feature", "properties": { "area_id": 441, "area_name": "al barsha south fourth", "building_name": "westwood grande by imtiaz" }, "geometry": { "type": "Point", "coordinates": [ 55.41168, 25.19308 ] } },
{ "type": "Feature", "properties": { "area_id": 441, "area_name": "al barsha south fourth", "building_name": "binghatti venus" }, "geometry": { "type": "Point", "coordinates": [ 55.24194, 25.10757 ] } },
{ "type": "Feature", "properties": { "area_id": 441, "area_name": "al barsha south fourth", "building_name": "empire residence" }, "geometry": { "type": "Point", "coordinates": [ 55.21613, 25.0595 ] } },
{ "type": "Feature", "properties": { "area_id": 441, "area_name": "al barsha south fourth", "building_name": "q gardens lofts" }, "geometry": { "type": "Point", "coordinates": [ 55.16053, 25.02418 ] } },
{ "type": "Feature", "properties": { "area_id": 526, "area_name": "business bay", "building_name": "binghatti canal" }, "geometry": { "type": "Point", "coordinates": [ 55.13363, 25.11729 ] } },
{ "type": "Feature", "properties": { "area_id": 526, "area_name": "business bay", "building_name": "luxury family residence ii" }, "geometry": { "type": "Point", "coordinates": [ 55.21613, 25.0595 ] } },
{ "type": "Feature", "properties": { "area_id": 526, "area_name": "business bay", "building_name": "business tower" }, "geometry": { "type": "Point", "coordinates": [ 55.27737, 25.21417 ] } },
{ "type": "Feature", "properties": { "area_id": 526, "area_name": "business bay", "building_name": "burj pacific" }, "geometry": { "type": "Point", "coordinates": [ 55.27617, 25.18656 ] } },
{ "type": "Feature", "properties": { "area_id": 332, "area_name": "zaabeel second", "building_name": "downtown views" }, "geometry": { "type": "Point", "coordinates": [ 55.31542, 25.20809 ] } },
{ "type": "Feature", "properties": { "area_id": 526, "area_name": "business bay", "building_name": "the vogue" }, "geometry": { "type": "Point", "coordinates": [ 55.24194, 25.10757 ] } },
{ "type": "Feature", "properties": { "area_id": 412, "area_name": "al merkadh", "building_name": "sobha hartland - crest grande" }, "geometry": { "type": "Point", "coordinates": [ 55.31049, 25.17642 ] } },
{ "type": "Feature", "properties": { "area_id": 412, "area_name": "al merkadh", "building_name": "sobha hartland waves opulence" }, "geometry": { "type": "Point", "coordinates": [ 55.31049, 25.17642 ] } },
{ "type": "Feature", "properties": { "area_id": 441, "area_name": "al barsha south fourth", "building_name": "crystal residence" }, "geometry": { "type": "Point", "coordinates": [ 55.21613, 25.0595 ] } },
{ "type": "Feature", "properties": { "area_id": 412, "area_name": "al merkadh", "building_name": "sobha hartland waves grande" }, "geometry": { "type": "Point", "coordinates": [ 55.31049, 25.17642 ] } },
{ "type": "Feature", "properties": { "area_id": 412, "area_name": "al merkadh", "building_name": "sobha hartland waves" }, "geometry": { "type": "Point", "coordinates": [ 55.31049, 25.17642 ] } },
{ "type": "Feature", "properties": { "area_id": 412, "area_name": "al merkadh", "building_name": "sobha creek vistas grande" }, "geometry": { "type": "Point", "coordinates": [ 55.31542, 25.20809 ] } },
{ "type": "Feature", "properties": { "area_id": 412, "area_name": "al merkadh", "building_name": "gemini splendor" }, "geometry": { "type": "Point", "coordinates": [ 55.24194, 25.10757 ] } },
{ "type": "Feature", "properties": { "area_id": 445, "area_name": "jabal ali first", "building_name": "azizi shaista residence" }, "geometry": { "type": "Point", "coordinates": [ 55.21613, 25.0595 ] } },
{ "type": "Feature", "properties": { "area_id": 445, "area_name": "jabal ali first", "building_name": "murano residence 1" }, "geometry": { "type": "Point", "coordinates": [ 55.21613, 25.0595 ] } },
{ "type": "Feature", "properties": { "area_id": 333, "area_name": "madinat dubai almelaheyah", "building_name": "the anwa by omniyat" }, "geometry": { "type": "Point", "coordinates": [ 55.12277, 25.12207 ] } },
{ "type": "Feature", "properties": { "area_id": 350, "area_name": "al thanyah fifth", "building_name": "banyan tree residences hillside dubai" }, "geometry": { "type": "Point", "coordinates": [ 55.13978, 25.11512 ] } },
{ "type": "Feature", "properties": { "area_id": 452, "area_name": "al hebiah second", "building_name": "laya heights" }, "geometry": { "type": "Point", "coordinates": [ 55.31586, 25.14207 ] } },
{ "type": "Feature", "properties": { "area_id": 526, "area_name": "business bay", "building_name": "marquise square tower" }, "geometry": { "type": "Point", "coordinates": [ 55.27618, 25.18498 ] } },
{ "type": "Feature", "properties": { "area_id": 350, "area_name": "al thanyah fifth", "building_name": "viewz 1 by danube" }, "geometry": { "type": "Point", "coordinates": [ 55.0957, 25.00129 ] } },
{ "type": "Feature", "properties": { "area_id": 526, "area_name": "business bay", "building_name": "the binary by omniyat" }, "geometry": { "type": "Point", "coordinates": [ 55.255546, 25.218099 ] } },
{ "type": "Feature", "properties": { "area_id": 452, "area_name": "al hebiah second", "building_name": "glitz residence 1" }, "geometry": { "type": "Point", "coordinates": [ 55.21613, 25.0595 ] } },
{ "type": "Feature", "properties": { "area_id": 452, "area_name": "al hebiah second", "building_name": "glitz residence 2" }, "geometry": { "type": "Point", "coordinates": [ 55.21613, 25.0595 ] } },
{ "type": "Feature", "properties": { "area_id": 526, "area_name": "business bay", "building_name": "ahad residences" }, "geometry": { "type": "Point", "coordinates": [ 55.13978, 25.11512 ] } },
{ "type": "Feature", "properties": { "area_id": 526, "area_name": "business bay", "building_name": "the sterling east house" }, "geometry": { "type": "Point", "coordinates": [ 54.60719, 24.30919 ] } },
{ "type": "Feature", "properties": { "area_id": 526, "area_name": "business bay", "building_name": "west bay tower" }, "geometry": { "type": "Point", "coordinates": [ 55.1093, 25.10992 ] } },
{ "type": "Feature", "properties": { "area_id": 526, "area_name": "business bay", "building_name": "the sterling west house" }, "geometry": { "type": "Point", "coordinates": [ 55.1093, 25.10992 ] } },
{ "type": "Feature", "properties": { "area_id": 526, "area_name": "business bay", "building_name": "dg1 living" }, "geometry": { "type": "Point", "coordinates": [ 55.30447, 25.25684 ] } },
{ "type": "Feature", "properties": { "area_id": 526, "area_name": "business bay", "building_name": "the opus by omniyat" }, "geometry": { "type": "Point", "coordinates": [ 55.255158, 25.218296 ] } },
{ "type": "Feature", "properties": { "area_id": 526, "area_name": "business bay", "building_name": "vera tower" }, "geometry": { "type": "Point", "coordinates": [ 55.14243, 25.07223 ] } },
{ "type": "Feature", "properties": { "area_id": 526, "area_name": "business bay", "building_name": "iris bay" }, "geometry": { "type": "Point", "coordinates": [ 55.16397, 24.99991 ] } },
{ "type": "Feature", "properties": { "area_id": 441, "area_name": "al barsha south fourth", "building_name": "dusit princess rijas" }, "geometry": { "type": "Point", "coordinates": [ 55.14671, 25.08885 ] } },
{ "type": "Feature", "properties": { "area_id": 334, "area_name": "al jadaf", "building_name": "binghatti creek" }, "geometry": { "type": "Point", "coordinates": [ 55.31542, 25.20809 ] } },
{ "type": "Feature", "properties": { "area_id": 334, "area_name": "al jadaf", "building_name": "al waleed garden 2" }, "geometry": { "type": "Point", "coordinates": [ 55.29514, 25.25958 ] } },
{ "type": "Feature", "properties": { "area_id": 526, "area_name": "business bay", "building_name": "urban oasis" }, "geometry": { "type": "Point", "coordinates": [ 55.14626, 24.86169 ] } },
{ "type": "Feature", "properties": { "area_id": 452, "area_name": "al hebiah second", "building_name": "azizi mirage 1" }, "geometry": { "type": "Point", "coordinates": [ 55.30695, 25.17141 ] } },
{ "type": "Feature", "properties": { "area_id": 409, "area_name": "al barshaa south third", "building_name": "jewelz residence" }, "geometry": { "type": "Point", "coordinates": [ 55.21613, 25.0595 ] } },
{ "type": "Feature", "properties": { "area_id": 334, "area_name": "al jadaf", "building_name": "binghatti gateway" }, "geometry": { "type": "Point", "coordinates": [ 55.1548, 25.10134 ] } },
{ "type": "Feature", "properties": { "area_id": 441, "area_name": "al barsha south fourth", "building_name": "the haven residences" }, "geometry": { "type": "Point", "coordinates": [ 55.13978, 25.11512 ] } },
{ "type": "Feature", "properties": { "area_id": 526, "area_name": "business bay", "building_name": "safeer tower 2" }, "geometry": { "type": "Point", "coordinates": [ 55.3823, 25.08782 ] } },
{ "type": "Feature", "properties": { "area_id": 526, "area_name": "business bay", "building_name": "safeer tower 1" }, "geometry": { "type": "Point", "coordinates": [ 55.3823, 25.08782 ] } },
{ "type": "Feature", "properties": { "area_id": 526, "area_name": "business bay", "building_name": "dolphin tower" }, "geometry": { "type": "Point", "coordinates": [ 55.14243, 25.07223 ] } },
{ "type": "Feature", "properties": { "area_id": 482, "area_name": "hadaeq sheikh mohammed bin rashid", "building_name": "park heights i" }, "geometry": { "type": "Point", "coordinates": [ 55.20988, 25.0361 ] } },
{ "type": "Feature", "properties": { "area_id": 483, "area_name": "warsan fourth", "building_name": "suncity homes" }, "geometry": { "type": "Point", "coordinates": [ 55.20786, 25.04724 ] } },
{ "type": "Feature", "properties": { "area_id": 447, "area_name": "al khairan first", "building_name": "creek palace" }, "geometry": { "type": "Point", "coordinates": [ 55.31542, 25.20809 ] } },
{ "type": "Feature", "properties": { "area_id": 447, "area_name": "al khairan first", "building_name": "the grand" }, "geometry": { "type": "Point", "coordinates": [ 55.41168, 25.19308 ] } },
{ "type": "Feature", "properties": { "area_id": 447, "area_name": "al khairan first", "building_name": "island park ii" }, "geometry": { "type": "Point", "coordinates": [ 55.14204, 25.08208 ] } },
{ "type": "Feature", "properties": { "area_id": 447, "area_name": "al khairan first", "building_name": "17 icon bay" }, "geometry": { "type": "Point", "coordinates": [ 55.34573, 25.20398 ] } },
{ "type": "Feature", "properties": { "area_id": 334, "area_name": "al jadaf", "building_name": "fawad azizi residence" }, "geometry": { "type": "Point", "coordinates": [ 55.21613, 25.0595 ] } },
{ "type": "Feature", "properties": { "area_id": 334, "area_name": "al jadaf", "building_name": "farhad azizi residence" }, "geometry": { "type": "Point", "coordinates": [ 55.21613, 25.0595 ] } },
{ "type": "Feature", "properties": { "area_id": 526, "area_name": "business bay", "building_name": "the edge" }, "geometry": { "type": "Point", "coordinates": [ 55.16289, 25.10246 ] } },
{ "type": "Feature", "properties": { "area_id": 412, "area_name": "al merkadh", "building_name": "azizi riviera 5" }, "geometry": { "type": "Point", "coordinates": [ 55.30308, 25.17135 ] } },
{ "type": "Feature", "properties": { "area_id": 412, "area_name": "al merkadh", "building_name": "azizi riviera 16" }, "geometry": { "type": "Point", "coordinates": [ 55.30308, 25.17135 ] } },
{ "type": "Feature", "properties": { "area_id": 442, "area_name": "al barsha south fifth", "building_name": "zazen one" }, "geometry": { "type": "Point", "coordinates": [ 55.24194, 25.10757 ] } },
{ "type": "Feature", "properties": { "area_id": 412, "area_name": "al merkadh", "building_name": "azizi riviera 1" }, "geometry": { "type": "Point", "coordinates": [ 55.30308, 25.17135 ] } },
{ "type": "Feature", "properties": { "area_id": 412, "area_name": "al merkadh", "building_name": "azizi riviera 3" }, "geometry": { "type": "Point", "coordinates": [ 55.30308, 25.17135 ] } },
{ "type": "Feature", "properties": { "area_id": 412, "area_name": "al merkadh", "building_name": "azizi riviera 11" }, "geometry": { "type": "Point", "coordinates": [ 55.30308, 25.17135 ] } },
{ "type": "Feature", "properties": { "area_id": 412, "area_name": "al merkadh", "building_name": "azizi riviera 12" }, "geometry": { "type": "Point", "coordinates": [ 55.30308, 25.17135 ] } },
{ "type": "Feature", "properties": { "area_id": 412, "area_name": "al merkadh", "building_name": "azizi riviera 14" }, "geometry": { "type": "Point", "coordinates": [ 55.30308, 25.17135 ] } },
{ "type": "Feature", "properties": { "area_id": 412, "area_name": "al merkadh", "building_name": "azizi riviera 15" }, "geometry": { "type": "Point", "coordinates": [ 55.30308, 25.17135 ] } },
{ "type": "Feature", "properties": { "area_id": 412, "area_name": "al merkadh", "building_name": "azizi riviera 20" }, "geometry": { "type": "Point", "coordinates": [ 55.30308, 25.17135 ] } },
{ "type": "Feature", "properties": { "area_id": 412, "area_name": "al merkadh", "building_name": "azizi riviera 21" }, "geometry": { "type": "Point", "coordinates": [ 55.30522, 25.17341 ] } },
{ "type": "Feature", "properties": { "area_id": 412, "area_name": "al merkadh", "building_name": "azizi riviera 22" }, "geometry": { "type": "Point", "coordinates": [ 55.30308, 25.17135 ] } },
{ "type": "Feature", "properties": { "area_id": 412, "area_name": "al merkadh", "building_name": "azizi riviera 18" }, "geometry": { "type": "Point", "coordinates": [ 55.30308, 25.17135 ] } },
{ "type": "Feature", "properties": { "area_id": 412, "area_name": "al merkadh", "building_name": "azizi riviera 10" }, "geometry": { "type": "Point", "coordinates": [ 55.30308, 25.17135 ] } },
{ "type": "Feature", "properties": { "area_id": 412, "area_name": "al merkadh", "building_name": "azizi riviera 23" }, "geometry": { "type": "Point", "coordinates": [ 55.3069, 25.17351 ] } },
{ "type": "Feature", "properties": { "area_id": 412, "area_name": "al merkadh", "building_name": "azizi riviera 24" }, "geometry": { "type": "Point", "coordinates": [ 55.30852, 25.17363 ] } },
{ "type": "Feature", "properties": { "area_id": 412, "area_name": "al merkadh", "building_name": "azizi riviera 29" }, "geometry": { "type": "Point", "coordinates": [ 55.30852, 25.17363 ] } },
{ "type": "Feature", "properties": { "area_id": 412, "area_name": "al merkadh", "building_name": "azizi riviera 30" }, "geometry": { "type": "Point", "coordinates": [ 55.30852, 25.17363 ] } },
{ "type": "Feature", "properties": { "area_id": 412, "area_name": "al merkadh", "building_name": "azizi riviera 31" }, "geometry": { "type": "Point", "coordinates": [ 55.30852, 25.17363 ] } },
{ "type": "Feature", "properties": { "area_id": 412, "area_name": "al merkadh", "building_name": "azizi riviera 35" }, "geometry": { "type": "Point", "coordinates": [ 55.30631, 25.17165 ] } },
{ "type": "Feature", "properties": { "area_id": 412, "area_name": "al merkadh", "building_name": "azizi riviera 25" }, "geometry": { "type": "Point", "coordinates": [ 55.30852, 25.17363 ] } },
{ "type": "Feature", "properties": { "area_id": 526, "area_name": "business bay", "building_name": "canal heights 2" }, "geometry": { "type": "Point", "coordinates": [ 55.13363, 25.11729 ] } },
{ "type": "Feature", "properties": { "area_id": 482, "area_name": "hadaeq sheikh mohammed bin rashid", "building_name": "the grove by iman" }, "geometry": { "type": "Point", "coordinates": [ 55.16385, 25.00076 ] } },
{ "type": "Feature", "properties": { "area_id": 482, "area_name": "hadaeq sheikh mohammed bin rashid", "building_name": "prive residence" }, "geometry": { "type": "Point", "coordinates": [ 55.21613, 25.0595 ] } },
{ "type": "Feature", "properties": { "area_id": 441, "area_name": "al barsha south fourth", "building_name": "binghatti gate" }, "geometry": { "type": "Point", "coordinates": [ 55.4294, 25.21464 ] } },
{ "type": "Feature", "properties": { "area_id": 441, "area_name": "al barsha south fourth", "building_name": "binghatti gems" }, "geometry": { "type": "Point", "coordinates": [ 55.24428, 25.04269 ] } },
{ "type": "Feature", "properties": { "area_id": 441, "area_name": "al barsha south fourth", "building_name": "samana miami" }, "geometry": { "type": "Point", "coordinates": [ 55.24194, 25.10757 ] } },
{ "type": "Feature", "properties": { "area_id": 482, "area_name": "hadaeq sheikh mohammed bin rashid", "building_name": "ellington house iii" }, "geometry": { "type": "Point", "coordinates": [ 55.24504, 25.04535 ] } },
{ "type": "Feature", "properties": { "area_id": 482, "area_name": "hadaeq sheikh mohammed bin rashid", "building_name": "ellington house ii" }, "geometry": { "type": "Point", "coordinates": [ 55.24504, 25.04535 ] } },
{ "type": "Feature", "properties": { "area_id": 482, "area_name": "hadaeq sheikh mohammed bin rashid", "building_name": "ellington house" }, "geometry": { "type": "Point", "coordinates": [ 55.24504, 25.04535 ] } },
{ "type": "Feature", "properties": { "area_id": 412, "area_name": "al merkadh", "building_name": "azizi riviera 36" }, "geometry": { "type": "Point", "coordinates": [ 55.30852, 25.17363 ] } },
{ "type": "Feature", "properties": { "area_id": 412, "area_name": "al merkadh", "building_name": "azizi riviera 37" }, "geometry": { "type": "Point", "coordinates": [ 55.30852, 25.17363 ] } },
{ "type": "Feature", "properties": { "area_id": 412, "area_name": "al merkadh", "building_name": "azizi riviera 38" }, "geometry": { "type": "Point", "coordinates": [ 55.30852, 25.17363 ] } },
{ "type": "Feature", "properties": { "area_id": 412, "area_name": "al merkadh", "building_name": "azizi riviera 39" }, "geometry": { "type": "Point", "coordinates": [ 55.31008, 25.17384 ] } },
{ "type": "Feature", "properties": { "area_id": 412, "area_name": "al merkadh", "building_name": "azizi riviera 44" }, "geometry": { "type": "Point", "coordinates": [ 55.30949, 25.17271 ] } },
{ "type": "Feature", "properties": { "area_id": 412, "area_name": "al merkadh", "building_name": "azizi riviera 42" }, "geometry": { "type": "Point", "coordinates": [ 55.31044, 25.17331 ] } },
{ "type": "Feature", "properties": { "area_id": 412, "area_name": "al merkadh", "building_name": "azizi riviera 40" }, "geometry": { "type": "Point", "coordinates": [ 55.31008, 25.17384 ] } },
{ "type": "Feature", "properties": { "area_id": 412, "area_name": "al merkadh", "building_name": "azizi riviera 48" }, "geometry": { "type": "Point", "coordinates": [ 55.31269, 25.17231 ] } },
{ "type": "Feature", "properties": { "area_id": 412, "area_name": "al merkadh", "building_name": "azizi riviera 46" }, "geometry": { "type": "Point", "coordinates": [ 55.31022, 25.17199 ] } },
{ "type": "Feature", "properties": { "area_id": 412, "area_name": "al merkadh", "building_name": "azizi riviera 47" }, "geometry": { "type": "Point", "coordinates": [ 55.31269, 25.17231 ] } },
{ "type": "Feature", "properties": { "area_id": 412, "area_name": "al merkadh", "building_name": "azizi riviera 41" }, "geometry": { "type": "Point", "coordinates": [ 55.31123, 25.1734 ] } },
{ "type": "Feature", "properties": { "area_id": 412, "area_name": "al merkadh", "building_name": "azizi riviera azure" }, "geometry": { "type": "Point", "coordinates": [ 55.30308, 25.17135 ] } },
{ "type": "Feature", "properties": { "area_id": 412, "area_name": "al merkadh", "building_name": "azizi riviera 63" }, "geometry": { "type": "Point", "coordinates": [ 55.31438, 25.17356 ] } },
{ "type": "Feature", "properties": { "area_id": 445, "area_name": "jabal ali first", "building_name": "equiti residence" }, "geometry": { "type": "Point", "coordinates": [ 55.21613, 25.0595 ] } },
{ "type": "Feature", "properties": { "area_id": 526, "area_name": "business bay", "building_name": "peninsula two" }, "geometry": { "type": "Point", "coordinates": [ 55.24194, 25.10757 ] } },
{ "type": "Feature", "properties": { "area_id": 526, "area_name": "business bay", "building_name": "peninsula one" }, "geometry": { "type": "Point", "coordinates": [ 55.24194, 25.10757 ] } },
{ "type": "Feature", "properties": { "area_id": 364, "area_name": "al wasl", "building_name": "laurel" }, "geometry": { "type": "Point", "coordinates": [ 55.16366, 24.99197 ] } },
{ "type": "Feature", "properties": { "area_id": 467, "area_name": "wadi al safa 5", "building_name": "the v tower" }, "geometry": { "type": "Point", "coordinates": [ 55.14243, 25.07223 ] } },
{ "type": "Feature", "properties": { "area_id": 452, "area_name": "al hebiah second", "building_name": "samana santorini" }, "geometry": { "type": "Point", "coordinates": [ 55.24194, 25.10757 ] } },
{ "type": "Feature", "properties": { "area_id": 466, "area_name": "wadi al safa 4", "building_name": "wadi tower" }, "geometry": { "type": "Point", "coordinates": [ 55.14243, 25.07223 ] } },
{ "type": "Feature", "properties": { "area_id": 441, "area_name": "al barsha south fourth", "building_name": "binghatti rose" }, "geometry": { "type": "Point", "coordinates": [ 55.16395, 25.00582 ] } },
{ "type": "Feature", "properties": { "area_id": 484, "area_name": "nadd hessa", "building_name": "jade residence" }, "geometry": { "type": "Point", "coordinates": [ 55.21613, 25.0595 ] } },
{ "type": "Feature", "properties": { "area_id": 484, "area_name": "nadd hessa", "building_name": "axis residences 4" }, "geometry": { "type": "Point", "coordinates": [ 55.40036, 25.12413 ] } },
{ "type": "Feature", "properties": { "area_id": 484, "area_name": "nadd hessa", "building_name": "arabian gate" }, "geometry": { "type": "Point", "coordinates": [ 55.37477, 25.09259 ] } },
{ "type": "Feature", "properties": { "area_id": 462, "area_name": "madinat al mataar", "building_name": "the pulse boulevard apartments - c3" }, "geometry": { "type": "Point", "coordinates": [ 55.27113, 25.19219 ] } },
{ "type": "Feature", "properties": { "area_id": 484, "area_name": "nadd hessa", "building_name": "ruby residence" }, "geometry": { "type": "Point", "coordinates": [ 55.21613, 25.0595 ] } },
{ "type": "Feature", "properties": { "area_id": 526, "area_name": "business bay", "building_name": "chic tower" }, "geometry": { "type": "Point", "coordinates": [ 55.14243, 25.07223 ] } },
{ "type": "Feature", "properties": { "area_id": 484, "area_name": "nadd hessa", "building_name": "cordoba palace" }, "geometry": { "type": "Point", "coordinates": [ 55.16622, 25.10621 ] } },
{ "type": "Feature", "properties": { "area_id": 507, "area_name": "al yelayiss 2", "building_name": "parkside" }, "geometry": { "type": "Point", "coordinates": [ 55.16143, 24.85299 ] } },
{ "type": "Feature", "properties": { "area_id": 467, "area_name": "wadi al safa 5", "building_name": "indigo tower" }, "geometry": { "type": "Point", "coordinates": [ 55.2141, 25.04926 ] } },
{ "type": "Feature", "properties": { "area_id": 507, "area_name": "al yelayiss 2", "building_name": "the regent" }, "geometry": { "type": "Point", "coordinates": [ 55.24844, 25.04573 ] } },
{ "type": "Feature", "properties": { "area_id": 467, "area_name": "wadi al safa 5", "building_name": "blue wave" }, "geometry": { "type": "Point", "coordinates": [ 55.23579, 25.03941 ] } },
{ "type": "Feature", "properties": { "area_id": 484, "area_name": "nadd hessa", "building_name": "sunshine residence" }, "geometry": { "type": "Point", "coordinates": [ 55.21613, 25.0595 ] } },
{ "type": "Feature", "properties": { "area_id": 484, "area_name": "nadd hessa", "building_name": "oasis star" }, "geometry": { "type": "Point", "coordinates": [ 55.10787, 25.03988 ] } },
{ "type": "Feature", "properties": { "area_id": 523, "area_name": "al hebiah third", "building_name": "damac hills - golf gate" }, "geometry": { "type": "Point", "coordinates": [ 55.4294, 25.21464 ] } },
{ "type": "Feature", "properties": { "area_id": 462, "area_name": "madinat al mataar", "building_name": "the pulse residence icon" }, "geometry": { "type": "Point", "coordinates": [ 55.21613, 25.0595 ] } },
{ "type": "Feature", "properties": { "area_id": 484, "area_name": "nadd hessa", "building_name": "uniestate millennium tower" }, "geometry": { "type": "Point", "coordinates": [ 55.26389, 25.17977 ] } },
{ "type": "Feature", "properties": { "area_id": 484, "area_name": "nadd hessa", "building_name": "axis residences 3" }, "geometry": { "type": "Point", "coordinates": [ 55.40036, 25.12413 ] } },
{ "type": "Feature", "properties": { "area_id": 467, "area_name": "wadi al safa 5", "building_name": "time 2" }, "geometry": { "type": "Point", "coordinates": [ 55.2168, 25.13938 ] } },
{ "type": "Feature", "properties": { "area_id": 484, "area_name": "nadd hessa", "building_name": "binghatti apartments" }, "geometry": { "type": "Point", "coordinates": [ 55.13, 25.04609 ] } },
{ "type": "Feature", "properties": { "area_id": 484, "area_name": "nadd hessa", "building_name": "oasis high park" }, "geometry": { "type": "Point", "coordinates": [ 55.10787, 25.03988 ] } },
{ "type": "Feature", "properties": { "area_id": 467, "area_name": "wadi al safa 5", "building_name": "desert sun tower" }, "geometry": { "type": "Point", "coordinates": [ 55.14243, 25.07223 ] } },
{ "type": "Feature", "properties": { "area_id": 452, "area_name": "al hebiah second", "building_name": "samana mykonos" }, "geometry": { "type": "Point", "coordinates": [ 55.24194, 25.10757 ] } },
{ "type": "Feature", "properties": { "area_id": 484, "area_name": "nadd hessa", "building_name": "sevanam crown" }, "geometry": { "type": "Point", "coordinates": [ 55.28514, 25.22585 ] } },
{ "type": "Feature", "properties": { "area_id": 484, "area_name": "nadd hessa", "building_name": "topaz residences 1" }, "geometry": { "type": "Point", "coordinates": [ 55.40332, 25.1278 ] } },
{ "type": "Feature", "properties": { "area_id": 462, "area_name": "madinat al mataar", "building_name": "majestique residence 1" }, "geometry": { "type": "Point", "coordinates": [ 55.21613, 25.0595 ] } },
{ "type": "Feature", "properties": { "area_id": 484, "area_name": "nadd hessa", "building_name": "altia residence" }, "geometry": { "type": "Point", "coordinates": [ 55.21613, 25.0595 ] } },
{ "type": "Feature", "properties": { "area_id": 467, "area_name": "wadi al safa 5", "building_name": "ag 7even" }, "geometry": { "type": "Point", "coordinates": [ 55.271545, 25.228808 ] } },
{ "type": "Feature", "properties": { "area_id": 445, "area_name": "jabal ali first", "building_name": "gemz by danube" }, "geometry": { "type": "Point", "coordinates": [ 55.0957, 25.00129 ] } },
{ "type": "Feature", "properties": { "area_id": 484, "area_name": "nadd hessa", "building_name": "axis silver" }, "geometry": { "type": "Point", "coordinates": [ 55.40036, 25.12413 ] } },
{ "type": "Feature", "properties": { "area_id": 465, "area_name": "wadi al safa 3", "building_name": "seventh heaven" }, "geometry": { "type": "Point", "coordinates": [ 55.24194, 25.10757 ] } },
{ "type": "Feature", "properties": { "area_id": 441, "area_name": "al barsha south fourth", "building_name": "binghatti heights" }, "geometry": { "type": "Point", "coordinates": [ 55.31586, 25.14207 ] } },
{ "type": "Feature", "properties": { "area_id": 465, "area_name": "wadi al safa 3", "building_name": "sherena residence 2" }, "geometry": { "type": "Point", "coordinates": [ 55.21613, 25.0595 ] } },
{ "type": "Feature", "properties": { "area_id": 484, "area_name": "nadd hessa", "building_name": "axis residences 5" }, "geometry": { "type": "Point", "coordinates": [ 55.40036, 25.12413 ] } },
{ "type": "Feature", "properties": { "area_id": 467, "area_name": "wadi al safa 5", "building_name": "solitaire cascades" }, "geometry": { "type": "Point", "coordinates": [ 55.24194, 25.10757 ] } },
{ "type": "Feature", "properties": { "area_id": 364, "area_name": "al wasl", "building_name": "erin" }, "geometry": { "type": "Point", "coordinates": [ 55.37988, 25.25824 ] } },
{ "type": "Feature", "properties": { "area_id": 484, "area_name": "nadd hessa", "building_name": "axis residences 8" }, "geometry": { "type": "Point", "coordinates": [ 55.40036, 25.12413 ] } },
{ "type": "Feature", "properties": { "area_id": 467, "area_name": "wadi al safa 5", "building_name": "ag square" }, "geometry": { "type": "Point", "coordinates": [ 55.24194, 25.10757 ] } },
{ "type": "Feature", "properties": { "area_id": 467, "area_name": "wadi al safa 5", "building_name": "time 1" }, "geometry": { "type": "Point", "coordinates": [ 55.2168, 25.13938 ] } },
{ "type": "Feature", "properties": { "area_id": 330, "area_name": "marsa dubai", "building_name": "beachgate by address" }, "geometry": { "type": "Point", "coordinates": [ 55.28259, 25.1946 ] } },
{ "type": "Feature", "properties": { "area_id": 462, "area_name": "madinat al mataar", "building_name": "tenora" }, "geometry": { "type": "Point", "coordinates": [ 55.24194, 25.10757 ] } },
{ "type": "Feature", "properties": { "area_id": 364, "area_name": "al wasl", "building_name": "fern" }, "geometry": { "type": "Point", "coordinates": [ 55.16346, 24.99426 ] } },
{ "type": "Feature", "properties": { "area_id": 507, "area_name": "al yelayiss 2", "building_name": "liva" }, "geometry": { "type": "Point", "coordinates": [ 55.21323, 25.04076 ] } },
{ "type": "Feature", "properties": { "area_id": 464, "area_name": "wadi al safa 2", "building_name": "wavez residence" }, "geometry": { "type": "Point", "coordinates": [ 55.21613, 25.0595 ] } },
{ "type": "Feature", "properties": { "area_id": 484, "area_name": "nadd hessa", "building_name": "binghatti stars" }, "geometry": { "type": "Point", "coordinates": [ 55.24194, 25.10757 ] } },
{ "type": "Feature", "properties": { "area_id": 465, "area_name": "wadi al safa 3", "building_name": "zubaida residency" }, "geometry": { "type": "Point", "coordinates": [ 55.39775, 25.16577 ] } },
{ "type": "Feature", "properties": { "area_id": 467, "area_name": "wadi al safa 5", "building_name": "k1" }, "geometry": { "type": "Point", "coordinates": [ 55.24194, 25.10757 ] } },
{ "type": "Feature", "properties": { "area_id": 330, "area_name": "marsa dubai", "building_name": "address the bay" }, "geometry": { "type": "Point", "coordinates": [ 55.27129, 25.2017 ] } },
{ "type": "Feature", "properties": { "area_id": 484, "area_name": "nadd hessa", "building_name": "tria by deyaar" }, "geometry": { "type": "Point", "coordinates": [ 55.19662, 25.11726 ] } },
{ "type": "Feature", "properties": { "area_id": 452, "area_name": "al hebiah second", "building_name": "samana golf avenue" }, "geometry": { "type": "Point", "coordinates": [ 55.26712, 25.04721 ] } },
{ "type": "Feature", "properties": { "area_id": 484, "area_name": "nadd hessa", "building_name": "coral residence" }, "geometry": { "type": "Point", "coordinates": [ 55.21613, 25.0595 ] } },
{ "type": "Feature", "properties": { "area_id": 484, "area_name": "nadd hessa", "building_name": "axis residences 6" }, "geometry": { "type": "Point", "coordinates": [ 55.39677, 25.12147 ] } },
{ "type": "Feature", "properties": { "area_id": 465, "area_name": "wadi al safa 3", "building_name": "sherena residence" }, "geometry": { "type": "Point", "coordinates": [ 55.21613, 25.0595 ] } },
{ "type": "Feature", "properties": { "area_id": 330, "area_name": "marsa dubai", "building_name": "princess tower" }, "geometry": { "type": "Point", "coordinates": [ 55.14671, 25.08885 ] } },
{ "type": "Feature", "properties": { "area_id": 330, "area_name": "marsa dubai", "building_name": "continental tower" }, "geometry": { "type": "Point", "coordinates": [ 55.14243, 25.07223 ] } },
{ "type": "Feature", "properties": { "area_id": 330, "area_name": "marsa dubai", "building_name": "belvedere" }, "geometry": { "type": "Point", "coordinates": [ 55.24194, 25.10757 ] } },
{ "type": "Feature", "properties": { "area_id": 330, "area_name": "marsa dubai", "building_name": "23 marina" }, "geometry": { "type": "Point", "coordinates": [ 55.14162, 25.07951 ] } },
{ "type": "Feature", "properties": { "area_id": 330, "area_name": "marsa dubai", "building_name": "jumeirah living marina gate" }, "geometry": { "type": "Point", "coordinates": [ 55.23159, 25.1904 ] } },
{ "type": "Feature", "properties": { "area_id": 409, "area_name": "al barshaa south third", "building_name": "marquis signature" }, "geometry": { "type": "Point", "coordinates": [ 55.26755, 25.18435 ] } },
{ "type": "Feature", "properties": { "area_id": 409, "area_name": "al barshaa south third", "building_name": "joya dorado residence" }, "geometry": { "type": "Point", "coordinates": [ 55.21613, 25.0595 ] } },
{ "type": "Feature", "properties": { "area_id": 371, "area_name": "al safouh second", "building_name": "cavalli casa tower" }, "geometry": { "type": "Point", "coordinates": [ 55.14243, 25.07223 ] } },
{ "type": "Feature", "properties": { "area_id": 526, "area_name": "business bay", "building_name": "the paragon by igo" }, "geometry": { "type": "Point", "coordinates": [ 55.276428, 25.226651 ] } },
{ "type": "Feature", "properties": { "area_id": 350, "area_name": "al thanyah fifth", "building_name": "viewz 2 by danube" }, "geometry": { "type": "Point", "coordinates": [ 55.0957, 25.00129 ] } },
{ "type": "Feature", "properties": { "area_id": 452, "area_name": "al hebiah second", "building_name": "celia residence" }, "geometry": { "type": "Point", "coordinates": [ 55.21613, 25.0595 ] } },
{ "type": "Feature", "properties": { "area_id": 412, "area_name": "al merkadh", "building_name": "azizi riviera 27" }, "geometry": { "type": "Point", "coordinates": [ 55.30852, 25.17363 ] } },
{ "type": "Feature", "properties": { "area_id": 412, "area_name": "al merkadh", "building_name": "azizi riviera 26" }, "geometry": { "type": "Point", "coordinates": [ 55.30852, 25.17363 ] } },
{ "type": "Feature", "properties": { "area_id": 482, "area_name": "hadaeq sheikh mohammed bin rashid", "building_name": "lime gardens" }, "geometry": { "type": "Point", "coordinates": [ 55.20042, 25.0157 ] } },
{ "type": "Feature", "properties": { "area_id": 445, "area_name": "jabal ali first", "building_name": "avenue residence 4" }, "geometry": { "type": "Point", "coordinates": [ 55.15278, 25.02888 ] } },
{ "type": "Feature", "properties": { "area_id": 390, "area_name": "burj khalifa", "building_name": "boulevard point" }, "geometry": { "type": "Point", "coordinates": [ 55.27113, 25.19219 ] } },
{ "type": "Feature", "properties": { "area_id": 435, "area_name": "al hebiah fourth", "building_name": "uniestate sports tower" }, "geometry": { "type": "Point", "coordinates": [ 55.50468, 25.16414 ] } },
{ "type": "Feature", "properties": { "area_id": 435, "area_name": "al hebiah fourth", "building_name": "zenith tower a2" }, "geometry": { "type": "Point", "coordinates": [ 55.14243, 25.07223 ] } },
{ "type": "Feature", "properties": { "area_id": 441, "area_name": "al barsha south fourth", "building_name": "villa myra" }, "geometry": { "type": "Point", "coordinates": [ 55.28072, 25.24803 ] } },
{ "type": "Feature", "properties": { "area_id": 441, "area_name": "al barsha south fourth", "building_name": "oxford boulevard" }, "geometry": { "type": "Point", "coordinates": [ 55.27113, 25.19219 ] } },
{ "type": "Feature", "properties": { "area_id": 350, "area_name": "al thanyah fifth", "building_name": "swiss tower" }, "geometry": { "type": "Point", "coordinates": [ 55.14243, 25.07223 ] } },
{ "type": "Feature", "properties": { "area_id": 484, "area_name": "nadd hessa", "building_name": "silicon gate 3" }, "geometry": { "type": "Point", "coordinates": [ 55.4294, 25.21464 ] } },
{ "type": "Feature", "properties": { "area_id": 484, "area_name": "nadd hessa", "building_name": "mas tower" }, "geometry": { "type": "Point", "coordinates": [ 55.14243, 25.07223 ] } },
{ "type": "Feature", "properties": { "area_id": 526, "area_name": "business bay", "building_name": "paramount tower hotel & residences" }, "geometry": { "type": "Point", "coordinates": [ 55.26304, 25.03075 ] } },
{ "type": "Feature", "properties": { "area_id": 412, "area_name": "al merkadh", "building_name": "azizi riviera 45" }, "geometry": { "type": "Point", "coordinates": [ 55.31034, 25.17272 ] } },
{ "type": "Feature", "properties": { "area_id": 412, "area_name": "al merkadh", "building_name": "azizi riviera 59" }, "geometry": { "type": "Point", "coordinates": [ 55.31443, 25.17463 ] } },
{ "type": "Feature", "properties": { "area_id": 526, "area_name": "business bay", "building_name": "peninsula four" }, "geometry": { "type": "Point", "coordinates": [ 55.30115, 25.25642 ] } },
{ "type": "Feature", "properties": { "area_id": 343, "area_name": "al warsan first", "building_name": "indigo optima 1" }, "geometry": { "type": "Point", "coordinates": [ 55.40893, 25.17095 ] } },
{ "type": "Feature", "properties": { "area_id": 390, "area_name": "burj khalifa", "building_name": "upper crest" }, "geometry": { "type": "Point", "coordinates": [ 55.24194, 25.10757 ] } },
{ "type": "Feature", "properties": { "area_id": 409, "area_name": "al barshaa south third", "building_name": "sunrise legend" }, "geometry": { "type": "Point", "coordinates": [ 55.30292, 25.09194 ] } },
{ "type": "Feature", "properties": { "area_id": 441, "area_name": "al barsha south fourth", "building_name": "chaimaa avenue" }, "geometry": { "type": "Point", "coordinates": [ 55.26712, 25.04721 ] } },
{ "type": "Feature", "properties": { "area_id": 441, "area_name": "al barsha south fourth", "building_name": "binghatti crest" }, "geometry": { "type": "Point", "coordinates": [ 55.24194, 25.10757 ] } },
{ "type": "Feature", "properties": { "area_id": 443, "area_name": "al thanyah first", "building_name": "sky central" }, "geometry": { "type": "Point", "coordinates": [ 55.13965, 24.88702 ] } },
{ "type": "Feature", "properties": { "area_id": 445, "area_name": "jabal ali first", "building_name": "prime residency 3" }, "geometry": { "type": "Point", "coordinates": [ 55.14552, 25.01915 ] } },
{ "type": "Feature", "properties": { "area_id": 526, "area_name": "business bay", "building_name": "silver tower" }, "geometry": { "type": "Point", "coordinates": [ 55.14243, 25.07223 ] } },
{ "type": "Feature", "properties": { "area_id": 462, "area_name": "madinat al mataar", "building_name": "kappa acca 3" }, "geometry": { "type": "Point", "coordinates": [ 55.22126, 24.93877 ] } },
{ "type": "Feature", "properties": { "area_id": 445, "area_name": "jabal ali first", "building_name": "avenue residence 2" }, "geometry": { "type": "Point", "coordinates": [ 55.14073, 25.03793 ] } },
{ "type": "Feature", "properties": { "area_id": 447, "area_name": "al khairan first", "building_name": "creek waters 2" }, "geometry": { "type": "Point", "coordinates": [ 55.31542, 25.20809 ] } },
{ "type": "Feature", "properties": { "area_id": 412, "area_name": "al merkadh", "building_name": "azizi riviera 4" }, "geometry": { "type": "Point", "coordinates": [ 55.30308, 25.17135 ] } },
{ "type": "Feature", "properties": { "area_id": 412, "area_name": "al merkadh", "building_name": "azizi riviera 13" }, "geometry": { "type": "Point", "coordinates": [ 55.30308, 25.17135 ] } },
{ "type": "Feature", "properties": { "area_id": 412, "area_name": "al merkadh", "building_name": "azizi riviera 33" }, "geometry": { "type": "Point", "coordinates": [ 55.30852, 25.17363 ] } },
{ "type": "Feature", "properties": { "area_id": 343, "area_name": "al warsan first", "building_name": "dragon view" }, "geometry": { "type": "Point", "coordinates": [ 55.13036, 25.03711 ] } },
{ "type": "Feature", "properties": { "area_id": 526, "area_name": "business bay", "building_name": "zada tower" }, "geometry": { "type": "Point", "coordinates": [ 55.14243, 25.07223 ] } },
{ "type": "Feature", "properties": { "area_id": 410, "area_name": "palm jumeirah", "building_name": "the palm tower" }, "geometry": { "type": "Point", "coordinates": [ 55.13413, 25.12901 ] } },
{ "type": "Feature", "properties": { "area_id": 330, "area_name": "marsa dubai", "building_name": "marina pinnacle" }, "geometry": { "type": "Point", "coordinates": [ 55.14502, 25.08531 ] } },
{ "type": "Feature", "properties": { "area_id": 482, "area_name": "hadaeq sheikh mohammed bin rashid", "building_name": "399 hills park b" }, "geometry": { "type": "Point", "coordinates": [ 55.1587, 25.07684 ] } },
{ "type": "Feature", "properties": { "area_id": 526, "area_name": "business bay", "building_name": "xl tower" }, "geometry": { "type": "Point", "coordinates": [ 55.14243, 25.07223 ] } },
{ "type": "Feature", "properties": { "area_id": 447, "area_name": "al khairan first", "building_name": "creek crescent" }, "geometry": { "type": "Point", "coordinates": [ 55.31542, 25.20809 ] } },
{ "type": "Feature", "properties": { "area_id": 482, "area_name": "hadaeq sheikh mohammed bin rashid", "building_name": "hills park" }, "geometry": { "type": "Point", "coordinates": [ 55.1587, 25.07684 ] } },
{ "type": "Feature", "properties": { "area_id": 330, "area_name": "marsa dubai", "building_name": "marina star" }, "geometry": { "type": "Point", "coordinates": [ 55.14502, 25.08531 ] } },
{ "type": "Feature", "properties": { "area_id": 467, "area_name": "wadi al safa 5", "building_name": "phoenix tower" }, "geometry": { "type": "Point", "coordinates": [ 55.14243, 25.07223 ] } },
{ "type": "Feature", "properties": { "area_id": 447, "area_name": "al khairan first", "building_name": "creek waters" }, "geometry": { "type": "Point", "coordinates": [ 55.31542, 25.20809 ] } },
{ "type": "Feature", "properties": { "area_id": 350, "area_name": "al thanyah fifth", "building_name": "reef tower" }, "geometry": { "type": "Point", "coordinates": [ 55.14243, 25.07223 ] } },
{ "type": "Feature", "properties": { "area_id": 442, "area_name": "al barsha south fifth", "building_name": "seslia tower" }, "geometry": { "type": "Point", "coordinates": [ 55.14243, 25.07223 ] } },
{ "type": "Feature", "properties": { "area_id": 330, "area_name": "marsa dubai", "building_name": "liv residence" }, "geometry": { "type": "Point", "coordinates": [ 55.21613, 25.0595 ] } },
{ "type": "Feature", "properties": { "area_id": 526, "area_name": "business bay", "building_name": "polaris" }, "geometry": { "type": "Point", "coordinates": [ 55.24194, 25.10757 ] } },
{ "type": "Feature", "properties": { "area_id": 334, "area_name": "al jadaf", "building_name": "o10" }, "geometry": { "type": "Point", "coordinates": [ 55.24194, 25.10757 ] } },
{ "type": "Feature", "properties": { "area_id": 526, "area_name": "business bay", "building_name": "canal heights" }, "geometry": { "type": "Point", "coordinates": [ 55.13363, 25.11729 ] } },
{ "type": "Feature", "properties": { "area_id": 484, "area_name": "nadd hessa", "building_name": "platinum residence 1" }, "geometry": { "type": "Point", "coordinates": [ 55.21613, 25.0595 ] } },
{ "type": "Feature", "properties": { "area_id": 526, "area_name": "business bay", "building_name": "canal crown 2" }, "geometry": { "type": "Point", "coordinates": [ 55.13363, 25.11729 ] } },
{ "type": "Feature", "properties": { "area_id": 343, "area_name": "al warsan first", "building_name": "indigo spectrum 2" }, "geometry": { "type": "Point", "coordinates": [ 55.20788, 25.05003 ] } },
{ "type": "Feature", "properties": { "area_id": 414, "area_name": "al barshaa south second", "building_name": "bella rose" }, "geometry": { "type": "Point", "coordinates": [ 55.16395, 25.00582 ] } },
{ "type": "Feature", "properties": { "area_id": 330, "area_name": "marsa dubai", "building_name": "opal tower" }, "geometry": { "type": "Point", "coordinates": [ 55.27593, 25.1859 ] } },
{ "type": "Feature", "properties": { "area_id": 435, "area_name": "al hebiah fourth", "building_name": "amal tower" }, "geometry": { "type": "Point", "coordinates": [ 55.14243, 25.07223 ] } },
{ "type": "Feature", "properties": { "area_id": 435, "area_name": "al hebiah fourth", "building_name": "golf view residence" }, "geometry": { "type": "Point", "coordinates": [ 55.21613, 25.0595 ] } },
{ "type": "Feature", "properties": { "area_id": 441, "area_name": "al barsha south fourth", "building_name": "chaimaa avenue 2" }, "geometry": { "type": "Point", "coordinates": [ 55.2637, 25.04692 ] } },
{ "type": "Feature", "properties": { "area_id": 442, "area_name": "al barsha south fifth", "building_name": "golden wood views" }, "geometry": { "type": "Point", "coordinates": [ 55.14528, 25.10861 ] } },
{ "type": "Feature", "properties": { "area_id": 442, "area_name": "al barsha south fifth", "building_name": "the ivy" }, "geometry": { "type": "Point", "coordinates": [ 55.24194, 25.10757 ] } },
{ "type": "Feature", "properties": { "area_id": 350, "area_name": "al thanyah fifth", "building_name": "global lake view" }, "geometry": { "type": "Point", "coordinates": [ 55.2182, 25.03991 ] } },
{ "type": "Feature", "properties": { "area_id": 350, "area_name": "al thanyah fifth", "building_name": "hds business centre" }, "geometry": { "type": "Point", "coordinates": [ 55.13827, 25.06419 ] } },
{ "type": "Feature", "properties": { "area_id": 484, "area_name": "nadd hessa", "building_name": "silicon heights" }, "geometry": { "type": "Point", "coordinates": [ 55.38902, 25.13477 ] } },
{ "type": "Feature", "properties": { "area_id": 484, "area_name": "nadd hessa", "building_name": "platinum residence 2" }, "geometry": { "type": "Point", "coordinates": [ 55.21613, 25.0595 ] } },
{ "type": "Feature", "properties": { "area_id": 484, "area_name": "nadd hessa", "building_name": "silicon heights2" }, "geometry": { "type": "Point", "coordinates": [ 55.38902, 25.13477 ] } },
{ "type": "Feature", "properties": { "area_id": 330, "area_name": "marsa dubai", "building_name": "la vie" }, "geometry": { "type": "Point", "coordinates": [ 55.24194, 25.10757 ] } },
{ "type": "Feature", "properties": { "area_id": 484, "area_name": "nadd hessa", "building_name": "topaz residences 3" }, "geometry": { "type": "Point", "coordinates": [ 55.40332, 25.1278 ] } },
{ "type": "Feature", "properties": { "area_id": 335, "area_name": "nad al shiba first", "building_name": "azizi greenfield" }, "geometry": { "type": "Point", "coordinates": [ 55.30695, 25.17141 ] } },
{ "type": "Feature", "properties": { "area_id": 412, "area_name": "al merkadh", "building_name": "sobha creek vistas reserve" }, "geometry": { "type": "Point", "coordinates": [ 55.31542, 25.20809 ] } },